"ID","Clee","Nombre de la Unidad Económica","Razón social","Código de la clase de actividad SCIAN","Nombre de clase de la actividad","Descripcion estrato personal ocupado","Tipo de vialidad","Nombre de la vialidad","Tipo de entre vialidad 1","Nombre de entre vialidad 1","Tipo de entre vialidad 2","Nombre de entre vialidad 2","Tipo de entre vialidad 3","Nombre de entre vialidad 3","Número exterior o kilómetro","Letra exterior","Edificio","Edificio Piso","Número interior","Letra interior","Tipo de asentamiento humano","Nombre de asentamiento humano","Tipo centro comercial","Corredor industrial, centro comercial o mercado público","Número de local","Código Postal","Clave entidad","Entidad federativa","Clave municipio","Municipio","Clave localidad","Localidad","Área geoestadística básica ","Manzana","Número de teléfono","Correo electrónico","Sitio en Internet","Tipo de establecimiento","Latitud","Longitud","Fecha de incorporación al DENUE"
"9386222","01001722513023031000000000U4","BARBACOA DE BORREGO LA FUNDICION",,"722513","Restaurantes con servicio de preparación de antojitos","0 a 5 personas","AVENIDA","FUNDICION","CALLE","DOCTOR ANTONIO ÁVILA CASTAÑEDA","CALLE","CALLE DEL CARMEN","CALLE","CALLE DEL CARMEN","230",,,,,,"COLONIA","DEL CARMEN",,,,,"01","AGUASCALIENTES","001","Aguascalientes","0001","Aguascalientes","0483","007",,,,"Fijo","21.88989121","-102.30645702","2021-11"
"8196062","01001722513019611000000000U9","BARBACOA DE RES LOS CRUDOS",,"722513","Restaurantes con servicio de preparación de antojitos","0 a 5 personas","AVENIDA","MARIANO ESCOBEDO","CALLE","NADIR","CALLE","CENIT","CALLE","SOL","703","A",,,"1",,"FRACCIONAMIENTO","VISTA DEL SOL II",,,,"20264","01","AGUASCALIENTES","001","Aguascalientes","0001","Aguascalientes","2475","016","4495496478",,,"Fijo","21.86321112","-102.27408017","2019-11"
"49","01003722219000241000000000U6","BARBACOA DE RES MIGUEL",,"722513","Restaurantes con servicio de preparación de antojitos","0 a 5 personas","CALLE","CENTENARIO","CALLE","MALECON","CALLE","HERMANOS GALEANA","CALLE","IGNACIO ALLENDE","100",,"MERCADO PUBLICO","PLANTA BAJA","12",,"COLONIA","CENTRO","MERCADO PUBLICO","MANUEL GOMEZ MORIN","12","20800","01","AGUASCALIENTES","003","Calvillo","0001","Calvillo","0187","010","4951039621",,,"Fijo","21.84762419","-102.71834049","2010-07"
"7461395","01005722513001361000000000U2","BARBACOA DEL VALLE",,"722513","Restaurantes con servicio de preparación de antojitos","0 a 5 personas","AVENIDA","ALEJANDRO DE LA CRUZ SAUCEDO","CALLE","AGUA DURA","CALLE","MANGLARES","CALLE","COCOTERO",,"SN",,,,,"COLONIA","LOS MANANTIALES",,,,"20926","01","AGUASCALIENTES","005","Jesús María","0001","Jesús María","0533","012","4499281311",,,"Fijo","21.95883885","-102.33737973","2019-11"
"21453","01001722219024373000000000U3","BARBACOA DON CHAVA",,"722513","Restaurantes con servicio de preparación de antojitos","0 a 5 personas","AVENIDA","CONVENCION DE 1914 PONIENTE","CALLE","TALAMANTES","CALLE","AQUILES ELORDUY","CALLE","DAVID REYNOSO FLORES","615",,,,"0",,"COLONIA","BARRIO SAN MARCOS",,,,"20070","01","AGUASCALIENTES","001","Aguascalientes","0001","Aguascalientes","0604","020",,,,"Fijo","21.88033336","-102.31225309","2010-07"
"8195906","01001722513019551000000000U7","BARBACOA DON CHAVA",,"722513","Restaurantes con servicio de preparación de antojitos","0 a 5 personas","CALLE","MARIANO MATAMOROS NORTE","CALLE","GENERAL IGNACIO ALLENDE","CALLE","VENUSTIANO CARRANZA","CALLE","JOSÉ F. ELIZONDO","204",,,,"0",,"COLONIA","ZONA CENTRO",,,,"20000","01","AGUASCALIENTES","001","Aguascalientes","0001","Aguascalientes","0623","001",,,,"Fijo","21.88056909","-102.29995415","2019-11"
"8524898","01001722513020051000000000U5","BARBACOA EL CHAUDER",,"722513","Restaurantes con servicio de preparación de antojitos","0 a 5 personas","AVENIDA","INDEPENDENCIA","PRIVADA","INDEPENDENCIA 154","CALLE","PETROLEOS MEXICANOS","CALLE","SAUCE","146",,,,,,"COLONIA","INDUSTRIAL",,,,"20030","01","AGUASCALIENTES","001","Aguascalientes","0001","Aguascalientes","0500","011",,,,"Fijo","21.8925904","-102.29523354","2019-11"
"9387754","01001722513023121000000000U3","BARBACOA LOS 3 HIDALGUENSES","JOEL ESPINOZA PERALTA ","722513","Restaurantes con servicio de preparación de antojitos","0 a 5 personas",,"SITIO DE CUAUTLA",,"30 DE JULIO",,"HEROE INMORTAL",,"30 DE JULIO","200","A",,,,,,"1821",,,,"20270","01","AGUASCALIENTES","001","Aguascalientes","0001","Aguascalientes","2691","025",,,,"Fijo","21.85636125","-102.26899084","2022-05"
"6980505","01001722513016421000000000U6","BARBACOA LOS MIJITOS",,"722513","Restaurantes con servicio de preparación de antojitos","0 a 5 personas","AVENIDA","AVENIDA DE LA ESPIGA","CALLE","MAESTRO CANDELARIO RIVAS","CALLE","MAESTRO JUAN ARELLANO","CALLE","SAXOFÓN","1108",,,,,,"FRACCIONAMIENTO","VISTA DE LAS CUMBRES",,,,"20174","01","AGUASCALIENTES","001","Aguascalientes","0001","Aguascalientes","3577","008","4499804386",,,"Semifijo","21.89698464","-102.24227817","2019-11"
"9035478","01001722513019962000000000U6","BARBACOA LOS RIVERA",,"722513","Restaurantes con servicio de preparación de antojitos","6 a 10 personas","CALLE","HERMANOS GALEANA","CALLE","MUNGUIA","CALLE","HERRERA","CALLE","CORREGIDORA","1708","A",,,"0",,"FRACCIONAMIENTO","MORELOS II",,,,"20298","01","AGUASCALIENTES","001","Aguascalientes","0001","Aguascalientes","2704","002","4493869168",,,"Fijo","21.85107566","-102.26289415","2019-11"
"1614","01001722514001211000000000U6","BARBACOA SALAS",,"722514","Restaurantes con servicio de preparación de tacos y tortas","0 a 5 personas","AVENIDA","PROLONGACION DOCTOR SALVADOR QUEZADA LIMON","CALLE","26 DE MARZO","AVENIDA","CONVENCION DE 1914 PONIENTE","CALLE","TLAXCALA","1204","A",,,"0",,"COLONIA","GOMEZ",,,,"20060","01","AGUASCALIENTES","001","Aguascalientes","0001","Aguascalientes","3295","011",,,,"Fijo","21.88544612","-102.31294554","2010-07"
"9353254","01001722514011031000000000U6","BARBACOA SANCHEZ",,"722514","Restaurantes con servicio de preparación de tacos y tortas","0 a 5 personas","CALLE","JESUS MARIA RODRIGUEZ","CALLE","CARLOS SAGREDO","CALLE","RAFAEL ARELLANO","CALLE","SANTA IRENE","703",,,,,,"COLONIA","ALTAVISTA",,,,"20040","01","AGUASCALIENTES","001","Aguascalientes","0001","Aguascalientes","0430","013",,,,"Fijo","21.89149692","-102.30481229","2021-05"
"9361128","01001722513022662000000000U7","BARBACOA Y BIRRIA DE BORREGO LA VALENTINA","BARBACOA Y BIRRIA DE BORREGO LA VALENTINA ","722513","Restaurantes con servicio de preparación de antojitos","6 a 10 personas","AVENIDA","AGUASCALIENTES SUR","CALLE","HOSTAL DE LAS CAMELINAS","AVENIDA","HEROE DE NACOZARI SUR","CALLE","INEGI","1209",,,,,,"FRACCIONAMIENTO","JARDINES DE LAS BUGAMBILIAS",,,,"20276","01","AGUASCALIENTES","001","Aguascalientes","0001","Aguascalientes","159A","027",,,,"Fijo","21.85984002","-102.28330318","2021-05"
"7162980","01001722513011741000000000U2","BIRRIA Y BARBACOA DE ARANDAS",,"722513","Restaurantes con servicio de preparación de antojitos","0 a 5 personas","CALLE","CRISTOBAL DE TORRES","CALLE","ROGELIO GALINDO DE LA TORRE","AVENIDA","JOSE DE JESUS GONZALEZ GARCIA","CALLE","JOSÉ RUÍZ ESPARZA VEGA","423",,,,"0",,"FRACCIONAMIENTO","VILLAS DE NUESTRA SEÑORA DE LA ASUNCION (SECTOR GUADALUPE)",,,,"20126","01","AGUASCALIENTES","001","Aguascalientes","0001","Aguascalientes","3045","012","4493717716",,,"Fijo","21.92983258","-102.25817948","2019-11"
"8525350","01001722513020141000000000U4","DON BRAVO BARBACOA",,"722513","Restaurantes con servicio de preparación de antojitos","0 a 5 personas","CALLE","GENERAL GUADALUPE VICTORIA","CALLE","MOCTEZUMA","CALLE","GENERAL IGNACIO ALLENDE","CALLE","5 DE MAYO","117","A",,,"0",,"COLONIA","ZONA CENTRO",,,,"20000","01","AGUASCALIENTES","001","Aguascalientes","0001","Aguascalientes","0623","017",,,,"Fijo","21.88159611","-102.29738419","2019-11"
"28367","01001722513011201001000000U7","EXQUISITA BARBACOA Y CONSOME ESTILO HIDALGO",,"722513","Restaurantes con servicio de preparación de antojitos","6 a 10 personas","AVENIDA","OJOCALIENTE","CALLE","JALTOMATE","CALLE","CALVILLITO","CALLE","PLAZUELA J","505",,,,,,"FRACCIONAMIENTO","OJOCALIENTE 1",,,,"20190","01","AGUASCALIENTES","001","Aguascalientes","0001","Aguascalientes","230A","001",,,,"Fijo","21.8850562","-102.25656495","2014-12"
"33922","01001722513008771000000000U4","GORDITAS Y TACOS DE BARBACOA SIN NOMBRE",,"722513","Restaurantes con servicio de preparación de antojitos","0 a 5 personas","CALLE","MAYOR PABLO GARCIA","CALLE","CANARIO","ANDADOR","NINGUNO","ANDADOR","AMANECER","505",,,,"0",,"COLONIA","POTREROS DEL OESTE",,,,"20284","01","AGUASCALIENTES","001","Aguascalientes","0001","Aguascalientes","1689","033","4494953131","EXTERNO_N@HOTMAIL.COM",,"Fijo","21.84183534","-102.29929342","2014-12"
"9458208","01001722513023241000000000U9","LA BARBACOA DE LALO",,"722513","Restaurantes con servicio de preparación de antojitos","0 a 5 personas","AVENIDA","SIGLO XXI","CALLE","LUIS CABRERA","CALLE","FRANCISCO VILLALPANDO ÁVILA","CALLE","GENERAL JULIÁN MEDINA","188","A",,,,,"FRACCIONAMIENTO","VILLAS DEL PILAR",,,,"20286","01","AGUASCALIENTES","001","Aguascalientes","0001","Aguascalientes","294A","009",,,,"Fijo","21.84586299","-102.3060782","2023-11"
"30063","01001722513006391010000000U3","PANZA HUECA, TACOS DE BARBACOA",,"722514","Restaurantes con servicio de preparación de tacos y tortas","0 a 5 personas","AVENIDA","MARIANO ESCOBEDO","CALLE","30 DE SEPTIEMBRE","AVENIDA","AGUASCALIENTES SUR","CALLE","30 DE SEPTIEMBRE",,"SN",,,,,"FRACCIONAMIENTO","VISTAS DEL SOL",,,,"20264","01","AGUASCALIENTES","001","Aguascalientes","0001","Aguascalientes","2475","038",,,,"Semifijo","21.86027921","-102.27275968","2014-12"
"8499613","01001722511003282000000000U1","RESTAURANTE BARBACOA DE BORREGO EL BUEN SANTIAGO",,"722511","Restaurantes con servicio de preparación de alimentos a la carta o de comida corrida","6 a 10 personas","BOULEVARD","LUIS DONALDO COLOSIO","CALLE","AGRICULTURA","CALLE","MONTE EVEREST","CALLE","POTREROS","246",,,,,"A","FRACCIONAMIENTO","VALLE DEL CAMPESTRE",,,,"20110","01","AGUASCALIENTES","001","Aguascalientes","0001","Aguascalientes","2371","023","4498040322",,,"Fijo","21.92442012","-102.31364158","2019-11"
"8388010","01005722513001162000000000U4","RESTAURANTE TORITOS BARBACOA",,"722513","Restaurantes con servicio de preparación de antojitos","6 a 10 personas","CARRETERA","SIN REFERENCIA",,"NINGUNO",,"NINGUNO",,"NINGUNO",,"SN",,,,,"LOCALIDAD","GRANJAS MIRAVALLE",,,,"20905","01","AGUASCALIENTES","005","Jesús María","0210","La Lomita de Paso Blanco (Las Canoas)","0035","002","4498972358",,,"Fijo","21.96835142","-102.31772929","2019-11"
"8916083","01001722514009341000000000U3","RICOS TACOS DE BARBACOA",,"722514","Restaurantes con servicio de preparación de tacos y tortas","0 a 5 personas","CALLE","REFUGIO MIRANDA AGUAYO","CALLE","AURORA ESPINOZA REYES","CALLE","MARIA ANTONIA RUIZ ESPARZA","CALLE","PENSADORES MEXICANOS","803",,,,"0",,"FRACCIONAMIENTO","FRACC LAS CUMBRES",,,,"20179","01","AGUASCALIENTES","001","Aguascalientes","0001","Aguascalientes","255A","012",,,,"Fijo","21.91164996","-102.26342888","2019-11"
"28331","01001722513003071010000000U4","TACOS DE BARBACOA",,"722514","Restaurantes con servicio de preparación de tacos y tortas","0 a 5 personas","CALLE","PALO ALTO","CALLE","BUENAVISTA","CALLE","PLAZUELA","CALLE","ARELLANO","402",,,,,,"FRACCIONAMIENTO","OJOCALIENTE 1",,,,"20190","01","AGUASCALIENTES","001","Aguascalientes","0001","Aguascalientes","2314","038",,,,"Fijo","21.88571058","-102.2553985","2014-12"
"8195065","01005722514000841000000000U2","TACOS DE BARBACOA",,"722514","Restaurantes con servicio de preparación de tacos y tortas","0 a 5 personas","CALLE","FRANCISCO JAVIER MINA","CALLE","SAUCEDO","CALLE","ADOLFO LOPEZ MATEOS","CALLE","ALDAMA","321",,,,"0",,"COLONIA","MARTINEZ ANDRADE",,,,"20900","01","AGUASCALIENTES","005","Jesús María","0001","Jesús María","0548","008",,,,"Fijo","21.95737207","-102.34536761","2019-11"
"6980530","01001722514007561000000000U8","TACOS DE BARBACOA",,"722514","Restaurantes con servicio de preparación de tacos y tortas","0 a 5 personas","CALLE","ESFUERZO NACIONAL","CALLE","SAN MIGUELITO","AVENIDA","OJOCALIENTE","CALLE","TORCAZAS",,"SN",,,,,"FRACCIONAMIENTO","MUNICIPIO LIBRE",,,,"20199","01","AGUASCALIENTES","001","Aguascalientes","0001","Aguascalientes","2598","014",,,,"Fijo","21.8941891","-102.25853295","2019-11"
"29285","01001722514003361000000000U7","TACOS DE BARBACOA DE RES",,"722514","Restaurantes con servicio de preparación de tacos y tortas","0 a 5 personas","CALLE","CIENEGUILLAS","CALLE","LOS CUERVOS","CALLE","POTRERILLO","CALLE","EL NOVILLO","108",,,,,,"FRACCIONAMIENTO","OJOCALIENTE II",,,,"20196","01","AGUASCALIENTES","001","Aguascalientes","0001","Aguascalientes","2333","038",,,,"Semifijo","21.87238696","-102.25101355","2014-12"
"6980466","01001722514007551000000000U9","TACOS DE BARBACOA EL ABUELO",,"722514","Restaurantes con servicio de preparación de tacos y tortas","0 a 5 personas","CALLE","EL MOCHO","AVENIDA","SIGLO XXI","CALLE","OCOTE","CALLE","LA BARRANCA","415",,,,,,"FRACCIONAMIENTO","OJO CALIENTE SECC III",,,,"20196","01","AGUASCALIENTES","001","Aguascalientes","0001","Aguascalientes","2634","014",,"EVERARDOVILLALVAZOFIGUEROA@GMAIL.COM",,"Fijo","21.87658147","-102.24669655","2019-11"
"6980749","01001722514007691000000000U3","TACOS DE BARBACOA EL CHUY",,"722514","Restaurantes con servicio de preparación de tacos y tortas","0 a 5 personas","CALLE","PASEO DE LAS TORRES PONIENTE","AVENIDA","PASEO OJOCALIENTE","CALLE","PASEO DEL CEDAZO","CALLE","PASEO DEL CERRITO","101",,,,,,"FRACCIONAMIENTO","OJOCALIENTE LAS TORRES",,,,"20256","01","AGUASCALIENTES","001","Aguascalientes","0001","Aguascalientes","2511","004",,,,"Fijo","21.87018251","-102.25659694","2019-11"
"8540924","01001722514009651000000000U5","TACOS DE BARBACOA EL DORADO",,"722514","Restaurantes con servicio de preparación de tacos y tortas","0 a 5 personas","AVENIDA","AVENIDA DE LOS MAESTROS","AVENIDA","AVENIDA SIGLO XXI","CALLE","ATELIER","CALLE","ATELIER","8001",,,,,,"FRACCIONAMIENTO","VICENTE GUERRERO",,,,"20200","01","AGUASCALIENTES","001","Aguascalientes","0001","Aguascalientes","4147","018",,,,"Fijo","21.8422088","-102.32400914","2019-11"
"8250956","01001722514010151000000000U3","TACOS DE BARBACOA EL GUERO",,"722514","Restaurantes con servicio de preparación de tacos y tortas","0 a 5 personas","CALLE","1821","PRIVADA","9-5","PRIVADA","9-3","CALLE","9-10",,"SN",,,,,"FRACCIONAMIENTO","JARDINES DE CASA NUEVA",,,,"20297","01","AGUASCALIENTES","001","Aguascalientes","0001","Aguascalientes","2672","032",,,,"Fijo","21.85671318","-102.27001157","2019-11"
"8850091","01001722514008321000000000U6","TACOS DE BARBACOA EL RINCON DE VILLA",,"722514","Restaurantes con servicio de preparación de tacos y tortas","0 a 5 personas","CALLE","JOSE GUERRA PALOS","CALLE","JOSE MANUEL RUIZ DE TEJADA Y OTAL","CALLE","DESIDERIO MACIAS SILVA","CALLE","SALVADOR DELGADO RAMÍREZ",,"SN",,,,,"FRACCIONAMIENTO","J GUADALUPE PERALTA GAMEZ",,,,"20196","01","AGUASCALIENTES","001","Aguascalientes","0001","Aguascalientes","3308","011",,,,"Fijo","21.86955516","-102.2411376","2019-11"
"6924083","01001722514008732000000000U4","TACOS DE BARBACOA EL SUPER",,"722514","Restaurantes con servicio de preparación de tacos y tortas","6 a 10 personas","CALLE","JACARANDAS","CALLE","PIRUL","AVENIDA","PASEO DE LA CRUZ","CALLE","PIRUL","905",,,,,,"FRACCIONAMIENTO","JARDINES DE LA CRUZ",,,,"20250","01","AGUASCALIENTES","001","Aguascalientes","0001","Aguascalientes","0820","042","4492842176",,,"Fijo","21.8740838","-102.2715059","2019-11"
"8434658","01001722514008281000000000U2","TACOS DE BARBACOA LA GUERA",,"722514","Restaurantes con servicio de preparación de tacos y tortas","0 a 5 personas","AVENIDA","SALUD","CALLE","JOSE MANUEL RUIZ DE TEJADA Y OTAL","CALLE","DESIDERIO MACIAS SILVA","CALLE","LUZ MARÍA SALDÍVAR RAMÍREZ","241",,,,"0",,"FRACCIONAMIENTO","J GUADALUPE PERALTA GAMEZ",,,,"20196","01","AGUASCALIENTES","001","Aguascalientes","0001","Aguascalientes","3312","010",,,,"Fijo","21.86847826","-102.23993902","2019-11"
"44241","01001722513001612010000000U7","TACOS DE BARBACOA LAS PLANCHITAS",,"722514","Restaurantes con servicio de preparación de tacos y tortas","6 a 10 personas","AVENIDA","AVENIDA DE LA CONVENCION ORIENTE","AVENIDA","NAZARIO ORTIZ GARZA","AVENIDA","GABRIELA MISTRAL","CALLE","MIGUEL DE CERVANTES SAAVEDRA",,"SN",,,,,"FRACCIONAMIENTO","SANTA ANITA 1RA SECC",,,,"20169","01","AGUASCALIENTES","001","Aguascalientes","0001","Aguascalientes","2422","026",,,,"Fijo","21.89759616","-102.27911334","2014-12"
"6923241","01001722514008461000000000U0","TACOS DE BARBACOA LOS TAPATIOS","TACOS DE BARBACOA LOS TAPATIOS ","722514","Restaurantes con servicio de preparación de tacos y tortas","0 a 5 personas","CALLE","MIGUEL RUELAS","CALLE","FELIPE RUIZ DE CHAVEZ","CALLE","DOCTOR ALBERTO DEL VALLE","CALLE","FELIPE RUÍZ DE CHÁVEZ","411","A",,,,,"COLONIA","MIRAVALLE",,,,"20040","01","AGUASCALIENTES","001","Aguascalientes","0001","Aguascalientes","0411","010","4491282244",,,"Fijo","21.89032032","-102.31216853","2019-11"
"9370115","01001722514011021000000000U7","TACOS DE BARBACOA LOS TOREADOS",,"722514","Restaurantes con servicio de preparación de tacos y tortas","0 a 5 personas","CALLE","JESUS MARIA RODRIGUEZ","CALLE","RAFAEL ARELLANO","AVENIDA","FUNDICION","CALLE","PONCIANO ARRIAGA","802",,,,,,"COLONIA","ALTAVISTA",,,,"20040","01","AGUASCALIENTES","001","Aguascalientes","0001","Aguascalientes","0430","018","4495136445",,,"Fijo","21.89061381","-102.30579062","2021-05"
"6943962","01001722514006511000000000U4","TACOS DE BARBACOA SIN NOMBRE",,"722514","Restaurantes con servicio de preparación de tacos y tortas","0 a 5 personas","AVENIDA","MARIANO HIDALGO","CALLE","ANTONIO DIAZ SOTO Y GAMA","CALLE","PLAN DE AYALA","CALLE","PLAN DE AYALA","212",,,,,,"COLONIA","EMILIANO ZAPATA",,,,"20298","01","AGUASCALIENTES","001","Aguascalientes","0001","Aguascalientes","2723","009","4491668606",,,"Fijo","21.85224168","-102.25601373","2019-11"
"6906036","01001722514006041000000000U2","TACOS DE BARBACOA SIN NOMBRE",,"722514","Restaurantes con servicio de preparación de tacos y tortas","0 a 5 personas","CALLE","SAN JUAN DE LOS LAGOS","CALLE","TEPEZALA","CALLE","ASIENTOS","AVENIDA","UNIVERSIDAD",,"SN",,,,,"COLONIA","SAN JOSE DEL ARENAL",,,,"20130","01","AGUASCALIENTES","001","Aguascalientes","0001","Aguascalientes","2278","024",,,,"Fijo","21.90657142","-102.30865537","2019-11"
"7043746","01001722514007991000000000U7","TACOS DE BARBACOA SIN NOMBRE",,"722514","Restaurantes con servicio de preparación de tacos y tortas","0 a 5 personas","CALLE","ARROYO","CALLE","ACANTO","AVENIDA","SIGLO XXI","CALLE","ZACATECO","0","SN",,,"0",,"FRACCIONAMIENTO","LOMAS DEL CHAPULIN",,,,"20263","01","AGUASCALIENTES","001","Aguascalientes","0001","Aguascalientes","3327","018",,,,"Fijo","21.86234002","-102.24799533","2019-11"
"9337166","01001722514011222000000000U1","TACOS DORADOS DE BARBACOA EL TORITO ELI",,"722514","Restaurantes con servicio de preparación de tacos y tortas","6 a 10 personas","AVENIDA","INDEPENDENCIA",,"SIN REFERENCIA","CALLE","TERCERA PRIVADA INDEPENDENCIA","BOULEVARD","BOULEVARD A ZACATECAS",,"SN",,,,,"COLONIA","LAS TROJES",,,,,"01","AGUASCALIENTES","001","Aguascalientes","0001","Aguascalientes","1316","025","4494182491",,,"Fijo","21.94205145","-102.29730508","2021-05"
"6923114","01001722514008411000000000U5","TAQUERIA EL RINCON DE LA BARBACOA",,"722514","Restaurantes con servicio de preparación de tacos y tortas","0 a 5 personas","CALLE","GENERAL IGNACIO ZARAGOZA","AVENIDA","FRANCISCO I. MADERO","CALLE","GONZALEZ SARACHO","CALLE","AGUSTÍN R. GONZÁLEZ","221",,,,,,"COLONIA","ZONA CENTRO",,,,"20000","01","AGUASCALIENTES","001","Aguascalientes","0001","Aguascalientes","0642","016",,,,"Fijo","21.88343457","-102.29060647","2019-11"
"41310","01001722513006902000000000U6","VENTA DE BARBACOA EL BUEN SANTIAGO",,"722511","Restaurantes con servicio de preparación de alimentos a la carta o de comida corrida","0 a 5 personas","BOULEVARD","JUAN PABLO II","CALLE","NINGUNO","AVENIDA","VALLE DEL MORCINIQUE","CERRADA","RETORNO TRAVERTINO","1080",,,,,,"FRACCIONAMIENTO","CANTERAS DE SANTA ELENA",,,,"20207","01","AGUASCALIENTES","001","Aguascalientes","0001","Aguascalientes","390A","045",,,,"Fijo","21.86679546","-102.32931735","2014-12"
"8849979","01001722514008301000000000U8","VENTA DE BARBACOA ESTILO HIDALGO DON HUGO",,"722514","Restaurantes con servicio de preparación de tacos y tortas","0 a 5 personas","AVENIDA","AVENIDA DE LA ESPIGA","PROLONGACION","BANDERILLA","PRIVADA","ESPIGA","CALLE","NINGUNO","270",,,,,,"FRACCIONAMIENTO","EL RIEGO",,,,"20199","01","AGUASCALIENTES","001","Aguascalientes","0001","Aguascalientes","3257","001","4491076635","PAN_ANGY4@HOTMAIL.COM",,"Fijo","21.89284913","-102.24982186","2019-11"
"8195097","01001722513019171000000000U4","VENTA DE BIRRIA Y BARBACOA",,"722513","Restaurantes con servicio de preparación de antojitos","0 a 5 personas","CALLE","CONSTITUCION","CALLE","HEROES DE CHAPULTEPEC","CALLE","ARTICULO NUMERO 7","CALLE","REVOLUCIÓN","125",,,,"0",,"FRACCIONAMIENTO","LOMA BONITA",,,,"20200","01","AGUASCALIENTES","001","Aguascalientes","0001","Aguascalientes","337A","015",,,,"Fijo","21.85612395","-102.34108365","2019-11"
"48367","01006722513000311000000000U6","VENTA DE CARNITAS Y BARBACOA NELLY",,"722513","Restaurantes con servicio de preparación de antojitos","0 a 5 personas","AVENIDA","16 DE SEPTIEMBRE","CALLE","FELIPE ÁNGELES","CALLE","FELIPE CARRILLO PUERTO","CALLE","IGNACIO RAMÍREZ","79",,,,,,"COLONIA","5 DE MAYO",,,,"20676","01","AGUASCALIENTES","006","Pabellón de Arteaga","0001","Pabellón de Arteaga","009A","032","4659557276",,,"Fijo","22.14208233","-102.27471088","2014-12"
"43642","01001722513005931001000000U7","VENTA DE MENUDO Y BARBACOA",,"722513","Restaurantes con servicio de preparación de antojitos","6 a 10 personas","CALLE","ESFUERZO NACIONAL","CALLE","JARDINES DE VERSALLES","AVENIDA","SIGLO XXI","CALLE","FUENTES DEL TROCADERO","1073",,,,,,"FRACCIONAMIENTO","FIDEL VELAZQUEZ",,,,"20199","01","AGUASCALIENTES","001","Aguascalientes","0001","Aguascalientes","2583","043",,,,"Fijo","21.89377689","-102.25592659","2014-12"
"8499887","01001722514010251000000000U1","VENTA DE TACOS DE  BARBACOA DE RES ESTILO JALISCO SIN NOMBRE",,"722514","Restaurantes con servicio de preparación de tacos y tortas","0 a 5 personas","CALLE","ERMITA DE SAN SEBASTIAN","AVENIDA","JOSE DE JESUS GONZALEZ GARCIA","CALLE","ROGELIO GALINDO DE LA TORRE","CALLE","FERNÁN GONZÁLEZ DE ESLAVA",,"SN","MERCADO PUBLICO","PISO 1",,,"FRACCIONAMIENTO","VILLAS DE NUESTRA SEÑORA DE LA ASUNCION SECTOR GUADALUPE","MERCADO PUBLICO","MERCADO MUNICIPAL VILLAS DE NUESTRA SEÑORA DE LA ASUNCION","PIEDRA 14","20126","01","AGUASCALIENTES","001","Aguascalientes","0001","Aguascalientes","3045","005","4495531106",,,"Fijo","21.93066741","-102.26055059","2019-11"
"8541125","01001722514009711000000000U7","VENTA DE TACOS DE BARBACOA LA LUPITA",,"722514","Restaurantes con servicio de preparación de tacos y tortas","0 a 5 personas","CALLE","JOSE F. ELIZONDO","AVENIDA","AVENIDA DE LAS ORQUIDEAS","CALLE","LOS LAURELES","CALLE","JAZMINES","120",,,,,,"COLONIA","LAS FLORES",,,,"20220","01","AGUASCALIENTES","001","Aguascalientes","0001","Aguascalientes","077A","028","4494333929",,,"Fijo","21.87558252","-102.30102846","2019-11"
"6915326","02002722514007951000000000U8","BARBACOA",,"722514","Restaurantes con servicio de preparación de tacos y tortas","0 a 5 personas","CALLE","NOVENA","AVENIDA","RIO TEHUANTEPEC","AVENIDA","RIO BLANCO","CALLE","OCTAVA",,"SN",,,,,"FRACCIONAMIENTO","HARO BARNETT",,,,"21390","02","BAJA CALIFORNIA","002","Mexicali","0001","Mexicali","2513","008","6861139237",,,"Fijo","32.59823881","-115.38901947","2019-11"
"6941543","02002722513003322000000000U8","BARBACOA & BIRRIA LOS WEROS",,"722513","Restaurantes con servicio de preparación de antojitos","6 a 10 personas","CALZADA","CALZADA DE LOS MONARCAS","AVENIDA","VILLAROBLEDO","CALLE","PRIMERA","AVENIDA","VALDEPEÑAS",,"SN",,,,,"COLONIA","VILLA DEL REY",,,,"21355","02","BAJA CALIFORNIA","002","Mexicali","0001","Mexicali","6056","010","6861570944",,,"Fijo","32.58851383","-115.48054639","2019-11"
"7804389","02004722330000461000000000U2","BARBACOA CERRO AZUL",,"722513","Restaurantes con servicio de preparación de antojitos","0 a 5 personas","CALLE","DIAZ MIRON (CUARTA)","CALLE","MIGUEL F. MARTINEZ (D)","AVENIDA","NIÑOS HEROES (B)","CALLE","EMILIANO ZAPATA (QUINTA)","7529","12",,,,,"COLONIA","ZONA CENTRO",,,,"22000","02","BAJA CALIFORNIA","004","Tijuana","0001","Tijuana","0051","011",,,,"Semifijo","32.53238905","-117.04041166","2019-11"
"7369070","02004722513007491000000000U3","BARBACOA DE BORREGO CASA BLANCA",,"722513","Restaurantes con servicio de preparación de antojitos","0 a 5 personas","CALLE","CASA BLANCA","AVENIDA","ISLA SAN BENITO","CALLE","VALLE DE LA TRINIDAD","CALLE","SAN CARLOS","21356",,,,,,"COLONIA","BUENOS AIRES",,,,"22207","02","BAJA CALIFORNIA","004","Tijuana","0001","Tijuana","5781","039","6643568962",,,"Fijo","32.50159545","-116.89257848","2019-11"
"7138050","02004722513007231000000000U3","BARBACOA DE BORREGO EL POBLANO",,"722513","Restaurantes con servicio de preparación de antojitos","0 a 5 personas","BOULEVARD","BOULEVARD EL REFUGIO","CALLE","NINGUNO","CALLE","CALLE EL SAUCE","CALLE","CALLE EL SAUCE",,"SN",,,,,"COLONIA","EL FLORIDO 1RA SECCION",,,,"22237","02","BAJA CALIFORNIA","004","Tijuana","0001","Tijuana","183A","032","6642694200",,,"Fijo","32.45975987","-116.88995203","2019-11"
"8515628","02004722513005551000000000U6","BARBACOA DE RES",,"722513","Restaurantes con servicio de preparación de antojitos","0 a 5 personas","CALLE","MANUEL FELIX ACOSTA","AVENIDA","BUCARELI","AVENIDA","CENTENARIO","CALLEJON","CALLEJÓN DEL REAL","30",,,,,,"COLONIA","OBRERA 3RA SECC",,,,"22180","02","BAJA CALIFORNIA","004","Tijuana","0001","Tijuana","3179","024",,,,"Fijo","32.49093627","-117.04625831","2019-11"
"9035786","02001722513002641000000000U4","BARBACOA DON BORREGO",,"722513","Restaurantes con servicio de preparación de antojitos","0 a 5 personas","AVENIDA","PEDRO LOYOLA","BOULEVARD","ESTANCIA","PROLONGACION","ESMERALDA","CALLE","NINGUNO","0","SN",,,"0",,"COLONIA","CARLOS PACHECO",,,,"22832","02","BAJA CALIFORNIA","001","Ensenada","0001","Ensenada","083A","009",,,,"Fijo","31.84424087","-116.6080378","2019-11"
"100973","02001722514000381000000000U7","BARBACOA EL TIO",,"722514","Restaurantes con servicio de preparación de tacos y tortas","0 a 5 personas","CALLE","DELANTE (EL ROSARIO)","AVENIDA","QUINTANA ROO","AVENIDA","LEONA VICARIO","CALLE","BAJA CALIFORNIA","293",,,,,,"COLONIA","CUAHUTEMOC",,,,"22890","02","BAJA CALIFORNIA","001","Ensenada","0001","Ensenada","7911","006","6461432322",,,"Fijo","31.85262504","-116.59321273","2014-12"
"8880090","02004722513007571000000000U2","BARBACOA ERMITA",,"722513","Restaurantes con servicio de preparación de antojitos","0 a 5 personas","CALZADA","ERMITA NORTE","CALLE","G. GUILLERMO PRIETO","CALLE","MELCHOR OCAMPO","CALLE","G. GUILLERMO PRIETO","807",,,,,,"FRACCIONAMIENTO","LOS ANGELES",,,,"22105","02","BAJA CALIFORNIA","004","Tijuana","0001","Tijuana","3395","008","6642322559",,,"Fijo","32.50735337","-116.97350881","2019-11"
"8727955","02002722513003801000000000U1","BARBACOA Y BIRRIA WEROS 2",,"722513","Restaurantes con servicio de preparación de antojitos","0 a 5 personas","CALLE","FRANCISCO JAVIER CASTILLO NEGRETE","AVENIDA","AVENIDA DE LOS CITRICOS","BOULEVARD","GENERAL SANTIAGO VIDAURRI","CALLE","NINGUNO",,"SN",,,,,"FRACCIONAMIENTO","LOS NARANJOS",,,,"21387","02","BAJA CALIFORNIA","002","Mexicali","0001","Mexicali","565A","003",,,,"Fijo","32.58859513","-115.44486339","2019-11"
"145059","02004722110000431000000000U1","BARBACOA Y CARNITAS DOS ARBOLITOS",,"722513","Restaurantes con servicio de preparación de antojitos","0 a 5 personas","BOULEVARD","CUCAPAH","CALLE","TAMPICO","CALLE","EJIDO JALAPA","CALLE","MANEADERO",,"SN",,,,,"COLONIA","BUENOS AIRES NORTE",,,,"22600","02","BAJA CALIFORNIA","004","Tijuana","0001","Tijuana","4393","047",,,,"Fijo","32.51172074","-116.90794832","2010-07"
"75903","02004722219016632000000000U5","RESTAURANTE BARBACOA EL CORRAL",,"722513","Restaurantes con servicio de preparación de antojitos","0 a 5 personas","AVENIDA","PASEO ENSENADA","CALLE","CALLE DEL AGUA","AVENIDA","PARQUE AZTECA NORTE","AVENIDA","PARQUE AZTECA NORTE","1501",,,,,,"SECCION","PLAYAS DE TIJUANA",,,,"22500","02","BAJA CALIFORNIA","004","Tijuana","0001","Tijuana","1473","021",,,,"Fijo","32.5223081","-117.11618917","2010-07"
"94406","02001722514001091000000000U1","TACOS DE BARBACOA",,"722514","Restaurantes con servicio de preparación de tacos y tortas","0 a 5 personas","AVENIDA","BRONCE","AVENIDA","CONSTITUCION","PRIVADA","PRIMERA","AVENIDA","CONSTITUCIÓN","1418",,,,"5",,"FRACCIONAMIENTO","RELOTIFICACION ROBERTO SALAZAR",,,,"22830","02","BAJA CALIFORNIA","001","Ensenada","0001","Ensenada","7771","001",,,,"Semifijo","31.87343612","-116.6122897","2014-12"
"6929952","02002722514004781000000000U2","TACOS DE BARBACOA OB","TACOS DE BARBACOA OB ","722514","Restaurantes con servicio de preparación de tacos y tortas","0 a 5 personas","AVENIDA","GENERAL ALVARO OBREGON","CALLE","LUIS CASTRO LOPEZ","CALLE","B","CALLEJON","VENEGAS","1000",,,,"0",,"COLONIA","SEGUNDA SECCION",,,,"21100","02","BAJA CALIFORNIA","002","Mexicali","0001","Mexicali","4238","014",,,,"Fijo","32.66273789","-115.47751","2019-11"
"156442","02004722514001611000000000U0","TORTAS Y BARBACOA",,"722514","Restaurantes con servicio de preparación de tacos y tortas","0 a 5 personas","BOULEVARD","GUSTAVO DIAZ ORDAZ","AVENIDA","SAN JOSE DE SAN MARTIN","BOULEVARD","MANUEL J. CLOUTHIER","BOULEVARD","FEDERICO BENÍTEZ LÓPEZ","8002",,,,,,"COLONIA","LAS HUERTAS 5 SECCION",,,,"22127","02","BAJA CALIFORNIA","004","Tijuana","0001","Tijuana","4069","045",,,,"Fijo","32.48501294","-116.94208341","2014-12"
"6916485","03003722513001491000000000U0","BARBACOA ALDOS",,"722513","Restaurantes con servicio de preparación de antojitos","0 a 5 personas","BOULEVARD","GENERAL AGUSTIN OLACHEA AVILES","CALLE","FRANCISCO JAVIER MINA","CALLE","MIGUEL HIDALGO Y COSTILLA","CALLE","LÁZARO CÁRDENAS","1105",,,,"0",,"LOCALIDAD","EJIDO EL CENTENARIO",,,,"23201","03","BAJA CALIFORNIA SUR","003","La Paz","0092","El Centenario","3566","007","6121248417",,,"Fijo","24.10578768","-110.41448196","2019-11"
"7512741","03001722513000531000000000U8","BARBACOA DE RES LA QUE BUENA",,"722513","Restaurantes con servicio de preparación de antojitos","0 a 5 personas","BOULEVARD","FRANCISCO I. MADERO","AVENIDA","ROSAURA ZAPATA","CALLE","IGNACIO ZARAGOZA","BOULEVARD","FRANCISCO I. MADERO",,"SN",,,,,"COLONIA","CENTRO",,,,"23600","03","BAJA CALIFORNIA SUR","001","Comondú","0001","Ciudad Constitución","221A","033",,,,"Fijo","25.03005704","-111.66991770999999","2019-11"
"8453207","03008722514002931000000000U1","BARBACOA EL CHINO",,"722514","Restaurantes con servicio de preparación de tacos y tortas","0 a 5 personas","BOULEVARD","FORJADORES","BOULEVARD","DON GUILLERMO","CALLE","PLAYA PALMILLA","CALLE","FARO VIEJO","0","SN",,,"0",,"COLONIA","PABLO L.MARTINEZ",,,,"23407","03","BAJA CALIFORNIA SUR","008","Los Cabos","0001","San José del Cabo","1208","005",,,,"Fijo","23.07476976","-109.70972904","2019-11"
"165359","03008722219004983000000000U6","BARBACOA EL MEXIQUENSE",,"722513","Restaurantes con servicio de preparación de antojitos","0 a 5 personas","AVENIDA","EJIDO","CALLE","ADOLFO LOPEZ MATEOS","CALLE","ADOLFO RUIZ CORTINES","CALLE","OAXACA",,"SN",,,,,"COLONIA","ARENAL",,,,"23469","03","BAJA CALIFORNIA SUR","008","Los Cabos","0054","Cabo San Lucas","0483","017","6241257271","BRANDON_MONROY99@OUTLOOK.COM",,"Fijo","22.89993807","-109.91703136","2010-07"
"6950211","03003722513002311000000000U9","BARBACOA EL VERGEL",,"722513","Restaurantes con servicio de preparación de antojitos","0 a 5 personas","BOULEVARD","FORJADORES DE SUDCALIFORNIA","CALLE","ONCE","CALLE","NINGUNO","CALLE","COBACH",,"SN",,,,,"FRACCIONAMIENTO","ZACATAL",,,,"23083","03","BAJA CALIFORNIA SUR","003","La Paz","0001","La Paz","3848","033","6121534546",,,"Fijo","24.09006849","-110.30919347","2019-11"
"8201530","03008722514003211000000000U7","BARBACOA RANCHERON",,"722514","Restaurantes con servicio de preparación de tacos y tortas","0 a 5 personas","BOULEVARD","TECNOLOGICO DE LOS CABOS","BOULEVARD","FORJADORES","CALLE","LEONAORDO DA VINCI","CALLE","PROFESOR FRANCISCO PAYEN SANDOVAL",,"SN",,,,,"COLONIA","GUAYMITAS",,,,"23445","03","BAJA CALIFORNIA SUR","008","Los Cabos","0001","San José del Cabo","1195","005","6241663776",,,"Fijo","23.07919358","-109.71045306","2019-11"
"6950502","03008722513001681000000000U5","BIRRIA BARBACOA Y CARNITAS",,"722513","Restaurantes con servicio de preparación de antojitos","0 a 5 personas","CALLE","NINGUNO","CALLE","NICARAGUA","CALLE","NINGUNO","CALLE","NINGUNO",,"SN",,,,,"COLONIA","LA BALLENA",,,,"23437","03","BAJA CALIFORNIA SUR","008","Los Cabos","0001","San José del Cabo","2672","010",,,,"Fijo","23.12238572","-109.72148329","2019-11"
"183843","03008722513001411000000000U7","BIRRIA Y BARBACOA DE CHIVO GUANAJUATO",,"722513","Restaurantes con servicio de preparación de antojitos","0 a 5 personas","CALLE","BAJA CALIFORNIA","CALLEJON","NINGUNO","BOULEVARD","TRANSPENINSULAR","CALLE","CARPINTEROS",,"SN",,,,,"COLONIA","SANTA ROSA",,,,"23428","03","BAJA CALIFORNIA SUR","008","Los Cabos","0001","San José del Cabo","0411","019","6241844912",,,"Fijo","23.09566535","-109.71015667","2014-12"
"7090434","03008722513002281000000000U3","LA CASA DE LA BARBACOA",,"722513","Restaurantes con servicio de preparación de antojitos","0 a 5 personas","CALLE","TIERRA","CALLE","TORMENTA","CALLE","HURACAN","CALLE","CENTELLA",,"SN",,,,,"COLONIA","LOMAS DEL SOL",,,,"23477","03","BAJA CALIFORNIA SUR","008","Los Cabos","0054","Cabo San Lucas","1231","015","7131004646",,,"Fijo","22.91411899","-109.92740448","2019-11"
"167417","03008722219002001000000000U9","RESTAURANTE BARBACOA VICKY",,"722513","Restaurantes con servicio de preparación de antojitos","0 a 5 personas","CALLE","PROFESORA CONCEPCION OLACHEA","CALLE","DOCTOR EDUARDO RODRIGUEZ COTA","CALLE","BAJA CALIFORNIA","CALLE","PERICÚES",,"SN",,,,,"COLONIA","ZACATAL",,,,"23430","03","BAJA CALIFORNIA SUR","008","Los Cabos","0001","San José del Cabo","0765","037","6242121205",,,"Fijo","23.09753733","-109.71125351","2010-07"
"7439723","04003722513003861000000000U1","ANTOJITOS BARBACOA SIN NOMBRE",,"722513","Restaurantes con servicio de preparación de antojitos","0 a 5 personas","AVENIDA","AVIACION","CALLE","42-D","CALLE","42-C","CALLE","42-C","164",,,,,,"COLONIA","TACUBAYA",,,,"24180","04","CAMPECHE","003","Carmen","0001","Ciudad del Carmen","0072","027","9381001182",,,"Semifijo","18.64353731","-91.82195746","2019-11"
"7438959","04003722514002591000000000U3","BARBACOA EL APRISCOM",,"722514","Restaurantes con servicio de preparación de tacos y tortas","0 a 5 personas","CALLE","58","CALLE","57","CALLE","57-A","CALLE","60","18",,,,,,"COLONIA","MORELOS",,,,"24115","04","CAMPECHE","003","Carmen","0001","Ciudad del Carmen","2399","016",,,,"Fijo","18.65687444","-91.82884059","2019-11"
"7217363","04002722513004721000000000U8","BARBACOA EL MANIS",,"722513","Restaurantes con servicio de preparación de antojitos","0 a 5 personas","AVENIDA","REPUBLICA","CALLE","NICARAGUA","CALLE","COSTA RICA","CALLE","TAMAULIPAS","110",,,,,,"BARRIO","FRACC CAMPECHE 1RA SECC",,,,"24050","04","CAMPECHE","002","Campeche","0001","San Francisco de Campeche","1020","037",,,,"Fijo","19.84029952","-90.53176909","2019-11"
"8721951","04003722514003681000000000U1","BARBACOA EL PATRON",,"722514","Restaurantes con servicio de preparación de tacos y tortas","0 a 5 personas","AVENIDA","CENTRAL","CALLE","GEOGRAFOS","AVENIDA","CONTADORES","CALLE","ESCULTORES","59",,,,"0",,"COLONIA","SANTA ISABEL",,,,"24157","04","CAMPECHE","003","Carmen","0001","Ciudad del Carmen","2948","008","9381336845",,,"Fijo","18.64613393","-91.78014992","2019-11"
"7216783","04002722513004462000000000U9","BARBACOA LOS ABUELOS",,"722513","Restaurantes con servicio de preparación de antojitos","6 a 10 personas","CALLE","14","PRIVADA","DE LA 14","CALLE","MONTECRISTO","CALLE","16",,"SN",,,,,"BARRIO","SAN ROMAN",,,,"24040","04","CAMPECHE","002","Campeche","0001","San Francisco de Campeche","1285","018","9818163826",,,"Fijo","19.83500018","-90.54996801","2019-11"
"7321540","04002722513005061000000000U8","BARBACOA LOS POCHOLOS ESTILO TETIHUACAN",,"722513","Restaurantes con servicio de preparación de antojitos","0 a 5 personas","CALLE","18","AVENIDA","JOSE LOPEZ PORTILLO","PRIVADA","NINGUNO","CALLE","18",,"SN",,,,,"COLONIA","VICENTE GUERRERO",,,,"24030","04","CAMPECHE","002","Campeche","0001","San Francisco de Campeche","1957","025","9811215590","JVC.730210@GMAIL.COM",,"Fijo","19.82760054","-90.5507718","2019-11"
"7429715","04004722514000631000000000U7","BARBACOA Y MIXIOTES LINALDI",,"722514","Restaurantes con servicio de preparación de tacos y tortas","0 a 5 personas","AVENIDA","REVOLUCION","AVENIDA","CARLOS SANSORES PEREZ","AVENIDA","REVOLUCION",,"NINGUNO",,"SN",,,,,"COLONIA","CENTRO",,,,"24400","04","CAMPECHE","004","Champotón","0001","Champotón","1951","028","9381423052",,,"Semifijo","19.35792316","-90.72487059","2019-11"
"7217144","04002722513004601000000000U2","LA BARBACOA",,"722513","Restaurantes con servicio de preparación de antojitos","0 a 5 personas","AVENIDA","CASA DE JUSTICIA","CALLE","NIEVE","AVENIDA","TORMENTA","CALLE","TORNADO","17",,,,"0",,"FRACCIONAMIENTO","FRACCIORAMA 2000",,,,"24090","04","CAMPECHE","002","Campeche","0001","San Francisco de Campeche","1181","015","9811105178",,,"Fijo","19.82445409","-90.52928191","2019-11"
"7431302","04010722513000401000000000U4","VENTA DE BARBACOA",,"722513","Restaurantes con servicio de preparación de antojitos","0 a 5 personas","CALLE","RIO BEC","CALLE","CHICANNA","CALLE","RIO BEC","AVENIDA","CHICANNÁ",,"SN",,,,,"COLONIA","AVIACION",,,,"24640","04","CAMPECHE","010","Calakmul","0001","Xpujil","0537","020",,,,"Fijo","18.50703113","-89.39558635","2019-11"
"7695590","05018311910000131000000000U4","CHICHARRONES Y BARBACOA DE RES IBARRA",,"311910","Elaboración de botanas","0 a 5 personas","AVENIDA","INDUSTRIAL","CALLE","FRANCISCO I. MADERO","CALLE","VENUSTIANO CARRANZA","CALLE","MAGDALENO",,"SN",,,,,"COLONIA","18 DE MARZO",,,,"25760","05","COAHUILA DE ZARAGOZA","018","Monclova","0001","Monclova","0169","029",,,,"Fijo","26.88481262","-101.42623361","2019-11"
"296337","05035461121001841000000000U3","BARBACOA DE RES",,"461121","Comercio al por menor de carnes rojas","0 a 5 personas","PEATONAL","VIESCA","AVENIDA","PRESIDENTE CARRANZA","AVENIDA","HIDALGO","CALLE","MELCHOR MÚZQUIZ","0","SN",,,"0",,"COLONIA","CENTRO",,,,"27000","05","COAHUILA DE ZARAGOZA","035","Torreón","0001","Torreón","3215","025",,,,"Semifijo","25.535889009999998","-103.46718019","2010-07"
"6965729","05035722514003721000000000U6","ARIES BARBACOA",,"722514","Restaurantes con servicio de preparación de tacos y tortas","0 a 5 personas","BOULEVARD","PEDRO RODRIGUEZ TRIANA","CALZADA","MANUEL GOMEZ MORIN","CALLE","PICHINCHA","CALLE","PICHINCHA","0","SN",,,"0",,"COLONIA","LA HACIENDA ORIENTE",,,,"27276","05","COAHUILA DE ZARAGOZA","035","Torreón","0001","Torreón","1011","066",,,,"Semifijo","25.52083954","-103.38625456","2019-11"
"8729237","05035722513013501000000000U2","BARBACOA ADRIANA",,"722513","Restaurantes con servicio de preparación de antojitos","0 a 5 personas","BOULEVARD","SECCION 38","CALLE","CALLE DE LAS GEMAS","AVENIDA","AVENIDA DE LOS MINEROS","CERRADA","CERRADA DEL AZUFRE","0","SN",,,"0",,"COLONIA","RESIDENCIAL DEL NORTE",,,,"27274","05","COAHUILA DE ZARAGOZA","035","Torreón","0001","Torreón","3662","007",,,,"Fijo","25.51541084","-103.38033203","2019-11"
"6967269","05035722513020431000000000U3","BARBACOA ALEX",,"722513","Restaurantes con servicio de preparación de antojitos","0 a 5 personas","CALLE","CALLE DE LAS NARANJAS","AVENIDA","UNIVERSIDAD","CALLE","CALLE DE LOS PLATANOS","CALLE","CALLE DE LAS CALABAZAS","0","SN",,,"0",,"COLONIA","VILLAS LA MERCED",,,,"27295","05","COAHUILA DE ZARAGOZA","035","Torreón","0001","Torreón","3111","009",,,,"Fijo","25.51075266","-103.39360931","2019-11"
"6428252","05035722514002081000000000U6","BARBACOA ALEXIS",,"722514","Restaurantes con servicio de preparación de tacos y tortas","0 a 5 personas","CALLE","PERLA DE LA LAGUNA","BOULEVARD","BOULEVARD DE LA LIBERTAD","BOULEVARD","CARRETERA A MIELERAS","CALLE","NINGUNO","388",,,,"0",,"FRACCIONAMIENTO","LA PERLA",,,,"27090","05","COAHUILA DE ZARAGOZA","035","Torreón","0001","Torreón","4209","001","8711440320",,,"Fijo","25.49982688","-103.360792","2014-12"
"8729348","05035722513013581000000000U4","BARBACOA AYALA",,"722513","Restaurantes con servicio de preparación de antojitos","0 a 5 personas","CALZADA","DIVISION DEL NORTE","CALLE","JOSEFA ORTIZ DE DOMINGUEZ","AVENIDA","SOR JUANA INES DE LA CRUZ","CALLE","LEONA VICARIO",,"SN",,,,,"COLONIA","CARMEN ROMANO",,,,"27276","05","COAHUILA DE ZARAGOZA","035","Torreón","0001","Torreón","1539","015",,,,"Fijo","25.52770345","-103.39384415","2019-11"
"8355343","05030722513004231000000000U8","BARBACOA CANOS",,"722513","Restaurantes con servicio de preparación de antojitos","0 a 5 personas","BOULEVARD","SANTA ELENA","CALLE","SANTA ALEJANDRA","CALLE","SANTA HILDA","CALLE","SANTA BEATRIZ",,"SN",,,,,"COLONIA","VILLA DE SAN LORENZO",,,,"25084","05","COAHUILA DE ZARAGOZA","030","Saltillo","0001","Saltillo","5770","012",,,,"Semifijo","25.35207608","-101.02039378","2019-11"
"306315","05035722219008771001000000U2","BARBACOA DE BORREGOS CHALOS",,"722513","Restaurantes con servicio de preparación de antojitos","6 a 10 personas","CALLE","CARMEN SALINAS (28)","AVENIDA","HIDALGO","AVENIDA","PRESIDENTE CARRANZA","CALLE","ALBERTO M. ALVARADO","413",,,,,,"COLONIA","AVENIDA HIDALGO",,,,"27000","05","COAHUILA DE ZARAGOZA","035","Torreón","0001","Torreón","1492","030","8717200849",,,"Fijo","25.53704344","-103.41836686","2010-07"
"9278508","05004722513000161000000000U6","BARBACOA DON MARCOS","MARCO ","722513","Restaurantes con servicio de preparación de antojitos","0 a 5 personas","BOULEVARD","DOCTOR JESUS VALDES SANCHEZ","CALLE","15 DE MAYO","CALLE","CONSTITUCION","CALLE","10 DE MAYO",,"SN",,,,,"COLONIA","EJIDAL",,,,"25354","05","COAHUILA DE ZARAGOZA","004","Arteaga","0001","Arteaga","0229","015",,,,"Fijo","25.44910719","-100.86557973","2020-11"
"243825","05002722513000071000000000U1","BARBACOA DON PANCHO",,"722513","Restaurantes con servicio de preparación de antojitos","0 a 5 personas","CALLE","COLEGIO DE ARQUITECTOS","CALLE","IGNACIO ALDAMA","CALLE","JOSE MARIANO JIMENEZ","CALLE","TLATELOLCO","1570",,,,"0",,"COLONIA","AEROPUERTO",,,,"26230","05","COAHUILA DE ZARAGOZA","002","Acuña","0001","Ciudad Acuña","2907","014",,,,"Fijo","29.32631168","-100.97263776","2014-12"
"7272787","05030722513006661000000000U4","BARBACOA DON RAFA",,"722513","Restaurantes con servicio de preparación de antojitos","0 a 5 personas","CALLE","CUARTA","CALLE","DOCTOR EDIGIO REBONATO","CALLE","JUAN FELIX HERRERA","CALLE","TERCERA","1271",,,,,,"COLONIA","NAZARIO ORTIZ GARZA",,,,"25100","05","COAHUILA DE ZARAGOZA","030","Saltillo","0001","Saltillo","4857","002",,,,"Fijo","25.46774388","-100.99882991","2019-11"
"8113208","05034722513000031000000000U8","BARBACOA EL BECERRO","BARBACOA EL BECERRO ","722513","Restaurantes con servicio de preparación de antojitos","0 a 5 personas","CALLE","MINERVA","BOULEVARD","HERCULES","CALLE","NEPTUNO","CALLE","ARTEMISA",,"SN",,,,,"COLONIA","HERCULES",,,,"27600","05","COAHUILA DE ZARAGOZA","034","Sierra Mojada","0025","Hércules","1635","022",,,,"Fijo","28.04178357","-103.7880498","2019-11"
"265964","05030722513001341000000000U8","BARBACOA EL CARNAL JR",,"722513","Restaurantes con servicio de preparación de antojitos","0 a 5 personas","PERIFERICO","LUIS ECHEVERRIA","CALLE","MANUEL DE SITUA","CALLE","MANUEL DE MEDEROS","CALLE","MANUEL DE SITÚA","2525",,,,,,"COLONIA","LANDIN",,,,"25070","05","COAHUILA DE ZARAGOZA","030","Saltillo","0001","Saltillo","4378","042","8442551835",,,"Fijo","25.40020805","-101.02358164","2014-12"
"238997","05030722513002071000000000U0","BARBACOA EL CHUTIS",,"722513","Restaurantes con servicio de preparación de antojitos","0 a 5 personas","CALLE","DAMIAN CARMONA","CALLE","NARCISO MENDOZA","CALLE","GENERAL MANUEL PEREZ TREVIÑO","CALLE","PADRE FLORES",,"SN",,,,,"COLONIA","SALTILLO ZONA CENTRO",,,,"25000","05","COAHUILA DE ZARAGOZA","030","Saltillo","0001","Saltillo","0233","033","8442728760",,,"Fijo","25.42452726","-101.00142419","2010-07"
"293650","05030722219001021000000000U0","BARBACOA EL MAGUEY",,"722513","Restaurantes con servicio de preparación de antojitos","0 a 5 personas","CALLE","FEDERICO GARCIA LORCA","CALLE","JORGE LUIS BORGES","CALLE","RAMON LOPEZ VELARDE","CALLE","LEÓN FELIPE","1117",,,,,,"COLONIA","LA MADRID",,,,"25050","05","COAHUILA DE ZARAGOZA","030","Saltillo","0001","Saltillo","2723","010","8444177289",,,"Fijo","25.40417402","-100.99184631","2010-07"
"7386592","05030722514003581000000000U5","BARBACOA EL NORTEÑO",,"722514","Restaurantes con servicio de preparación de tacos y tortas","0 a 5 personas","CALLE","ESTRAGON","CALLE","NINGUNO","CALLE","CAÑAGRIA","CALLE","ALBAHACA","104",,,,"0",,"AMPLIACION","RES FRANCISCO I MADERO",,,,"25016","05","COAHUILA DE ZARAGOZA","030","Saltillo","0001","Saltillo","5287","002","8445939233",,,"Fijo","25.41281736","-100.90681019","2019-11"
"262682","05030722513000921000000000U8","BARBACOA EL NOVILLO",,"722513","Restaurantes con servicio de preparación de antojitos","0 a 5 personas","CALLE","10","CALLE","21","CALLE","19","CALLE","12","1120",,,,,,"FRACCIONAMIENTO","CIUDAD MIRASIERRA",,,,"25016","05","COAHUILA DE ZARAGOZA","030","Saltillo","0001","Saltillo","5126","007","8444039274",,,"Fijo","25.42425418","-100.92533253","2014-12"
"8223862","05027722513000682000000000U2","BARBACOA EL NOVILLO",,"722513","Restaurantes con servicio de preparación de antojitos","6 a 10 personas","BOULEVARD","MARIANO MORALES","CALLE","ALTAMIRA","CALLE","EL TAJIN","CALLE","CHALCO","2014",,,,,,"FRACCIONAMIENTO","ANALCO",,,,"25902","05","COAHUILA DE ZARAGOZA","027","Ramos Arizpe","0001","Ramos Arizpe","1541","009","8442714715",,,"Fijo","25.56045445","-100.95269188","2019-11"
"7290561","05027722513000531000000000U1","BARBACOA EL NOVILLO",,"722513","Restaurantes con servicio de preparación de antojitos","0 a 5 personas","CALLE","GASPAR VALDES VALDES","CALLE","SINDICALISMO","CALLE","NINGUNO","CALLE","SINDICALISMO","262",,,,,,"COLONIA","NUEVO RAMOS",,,,"25900","05","COAHUILA DE ZARAGOZA","027","Ramos Arizpe","0001","Ramos Arizpe","0666","002","844747935",,,"Semifijo","25.5545881","-100.94121802","2019-11"
"312364","05035722219004431000000000U7","BARBACOA EL PEPILLO",,"722513","Restaurantes con servicio de preparación de antojitos","0 a 5 personas","BOULEVARD","DIAGONAL DE LAS FUENTES","AVENIDA","AVENIDA DEL BOSQUE","CALLE","CALLE DE LA ESTACION","CALLE","CALLE DE LA NORIA","283",,,,,,"FRACCIONAMIENTO","VILLAS LA MERCED",,,,"27295","05","COAHUILA DE ZARAGOZA","035","Torreón","0001","Torreón","3126","030",,,,"Fijo","25.50429616","-103.39369088","2010-07"
"8630761","05030722513003651000000000U8","BARBACOA EL POLLO",,"722513","Restaurantes con servicio de preparación de antojitos","0 a 5 personas","PROLONGACION","OTILIO GONZALEZ","CALLE","BOCANEGRA","CALLE","AGUA NUEVA","CALLE","SAN JOSÉ DE LOS CERRITOS",,"SN",,,,,"COLONIA","NUEVA IMAGEN",,,,"25019","05","COAHUILA DE ZARAGOZA","030","Saltillo","0001","Saltillo","390A","006","8441190065",,,"Semifijo","25.3949707","-100.96006596","2019-11"
"261443","05030722513002421000000000U7","BARBACOA EL REGIS",,"722513","Restaurantes con servicio de preparación de antojitos","0 a 5 personas","CALLE","JOSE DE LA CRUZ FLORES","CALLE","CAMINO REAL","BOULEVARD","LOS FUNDADORES","CALLE","ARROYO","250",,,,,,"COLONIA","SAN JOSE DE LOS CERRITOS",,,,"25010","05","COAHUILA DE ZARAGOZA","030","Saltillo","0001","Saltillo","2225","025",,,,"Fijo","25.43237676","-100.93773812","2014-12"
"9352289","05030722514004541000000000U8","BARBACOA EL REY",,"722514","Restaurantes con servicio de preparación de tacos y tortas","0 a 5 personas","CALLE","GEMINIS","CALLE","LAS MARAVILLAS","CALLE","PALMAS","CALLE","GÉMINIS","386","3",,,,,"COLONIA","EVARISTO PEREZ ARREOLA",,,,"25110","05","COAHUILA DE ZARAGOZA","030","Saltillo","0001","Saltillo","5681","026",,,,"Fijo","25.47716459","-101.01904186","2021-05"
"8161063","05030722513007211000000000U7","BARBACOA ESTILO OAXACA",,"722513","Restaurantes con servicio de preparación de antojitos","0 a 5 personas","CALLE","SECCION 38","CALLE","TORRE DE MARFIL","CALLE","DOCTOR HUGO CASTELLANOS RAMIREZ","CALLE","DOCTOR HUGO CASTELLANOS RAMÍREZ","1072",,,,,,"FRACCIONAMIENTO","PRIVADA LA TORRE",,,,"25016","05","COAHUILA DE ZARAGOZA","030","Saltillo","0001","Saltillo","5643","026",,,,"Semifijo","25.42443588","-100.93561116","2019-11"
"291947","05035722219008211000000000U9","BARBACOA LA BOLIS",,"722513","Restaurantes con servicio de preparación de antojitos","0 a 5 personas","BOULEVARD","SECCION 38","CALLE","CALLE DE LAS JOYAS","CALLE","CALLE DE LOS METALES","CERRADA","CERRADA DEL ACERO","0","SN",,,"0",,"COLONIA","RESIDENCIAL DEL NORTE",,,,"27274","05","COAHUILA DE ZARAGOZA","035","Torreón","0001","Torreón","3662","005",,,,"Fijo","25.51692938","-103.38274438","2010-07"
"275458","05035722513001031000000000U4","BARBACOA LA GUERA",,"722513","Restaurantes con servicio de preparación de antojitos","0 a 5 personas","AVENIDA","AVENIDA DEL AJUSCO","CALLE","CALLE DEL PEÑON","CALLE","VALLE BRAVO","AVENIDA","AVENIDA DEL ARENAL","694",,,,,,"FRACCIONAMIENTO","MONTE REAL",,,,"27277","05","COAHUILA DE ZARAGOZA","035","Torreón","0001","Torreón","3840","002",,,,"Fijo","25.50929861","-103.35391788","2014-12"
"8631529","05030722513003751000000000U6","BARBACOA LA PENCA",,"722513","Restaurantes con servicio de preparación de antojitos","0 a 5 personas","CALLE","GIROS","CALLE","PASEO DE LAS AVES","CALLE","MARAVILLAS","CALLE","GALLO","199",,,,,,"FRACCIONAMIENTO","MARAVILLAS",,,,"25019","05","COAHUILA DE ZARAGOZA","030","Saltillo","0001","Saltillo","1570","114","8444632074",,,"Fijo","25.41909706","-100.95626486","2019-11"
"8225159","05027722513000751000000000U5","BARBACOA LOERA",,"722513","Restaurantes con servicio de preparación de antojitos","0 a 5 personas","AVENIDA","AVENIDA DE LOS ARROYOS","CALLE","LAGO DE TETESQUIAPAN","CALLE","LAGUNA MADRE","CALLE","LAGO DE CHAPALA","2967","1",,,,,"COLONIA","MANANTIALES DEL VALLE",,,,"25900","05","COAHUILA DE ZARAGOZA","027","Ramos Arizpe","0001","Ramos Arizpe","1503","004","8441131764",,,"Fijo","25.51538413","-100.93597512","2019-11"
"292048","05035722219003951000000000U5","BARBACOA LOS CORONADO",,"722513","Restaurantes con servicio de preparación de antojitos","0 a 5 personas","AVENIDA","UNIVERSIDAD","AVENIDA","FUNDADORES DE TORREON","CALLE","CALZADA HACIENDA DE TORREON","CALLE","PUENTE NUEVO","672",,,,,,"COLONIA","RINCON LA MERCED",,,,"27276","05","COAHUILA DE ZARAGOZA","035","Torreón","0001","Torreón","3041","015",,,,"Fijo","25.50581969","-103.38448711","2010-07"
"8948732","05010722513000711000000000U5","BARBACOA LOS DOMINGOS",,"722513","Restaurantes con servicio de preparación de antojitos","0 a 5 personas","CIRCUITO","NOGAL","CIRCUITO","NOGAL","CALLE","SABINO","CALLE","AHUEHUETE","50",,,,"0",,"COLONIA","JARDINES DE AEROPUERTO",,,,"25617","05","COAHUILA DE ZARAGOZA","010","Frontera","0001","Frontera","0391","055",,,,"Fijo","26.95284763","-101.45314856","2019-11"
"6966035","05035722513018571000000000U0","BARBACOA LOS PILLOS",,"722513","Restaurantes con servicio de preparación de antojitos","0 a 5 personas","CALLE","JUAN AGUSTIN DE ESPINOZA","CALLE","SOR JUANA INES DE LA CRUZ","CALZADA","BARTOLOME DE LAS CASAS","CALLE","OCTAVIO PAZ","0","SN",,,"0",,"COLONIA","LA CORTINA",,,,"27054","05","COAHUILA DE ZARAGOZA","035","Torreón","0001","Torreón","2310","032",,,,"Semifijo","25.55798146","-103.36002249","2019-11"
"7273101","05027722513000991000000000U7","BARBACOA LOS PINOS",,"722513","Restaurantes con servicio de preparación de antojitos","0 a 5 personas","CARRETERA","NINGUNO","CALLE","PINO MARITIMO","CALLE","PINO ALEPO","CALLE","PINO MACEDONIA","0","SN",,,"0",,"COLONIA","PARAJE DE LOS PINOS",,,,"25905","05","COAHUILA DE ZARAGOZA","027","Ramos Arizpe","0001","Ramos Arizpe","1772","013",,,,"Fijo","25.53476587","-100.97815385","2019-11"
"7683371","05018722513001001000000000U3","BARBACOA LOS PRIMOS",,"722513","Restaurantes con servicio de preparación de antojitos","0 a 5 personas","AVENIDA","REVOLUCION MEXICANA","AVENIDA","ORIENTE","CALLE","5","CALLE","28","0","SN",,,"0",,"COLONIA","AMPL TIERRA Y LIBERTAD",,,,"25740","05","COAHUILA DE ZARAGOZA","018","Monclova","0001","Monclova","0864","017",,,,"Fijo","26.91490292","-101.39258043","2019-11"
"8161583","05027722513001141000000000U8","BARBACOA MARES",,"722513","Restaurantes con servicio de preparación de antojitos","0 a 5 personas","AVENIDA","GUSTAVO DIAZ ORDAZ","AVENIDA","FEDERALISMO","CALLE","CANDELILLA","CALLE","SIN REFERENCIA",,"SN",,,,,"PRIVADA","EDGAR PUENTE",,,,"25902","05","COAHUILA DE ZARAGOZA","027","Ramos Arizpe","0001","Ramos Arizpe","1594","041",,,,"Semifijo","25.55440146","-100.96322992","2019-11"
"7466854","05030722513006111000000000U0","BARBACOA NANDOS",,"722513","Restaurantes con servicio de preparación de antojitos","0 a 5 personas","AVENIDA","JUAN NAVARRO","CALLE","7","CALLE","8","AVENIDA","CENTRAL",,"SN",,,,,"COLONIA","VISTA HERMOSA",,,,"25019","05","COAHUILA DE ZARAGOZA","030","Saltillo","0001","Saltillo","2460","027",,,,"Fijo","25.42179772","-100.95341946","2019-11"
"7272685","05030722513006641000000000U6","BARBACOA PERALES",,"722513","Restaurantes con servicio de preparación de antojitos","0 a 5 personas","CALLE","GEMINIS","CALLE","LAS MARAVILLAS","CALLE","LOS CEDROS","CALLE","CALLE DEL ÁLAMO",,"SN",,,,,"COLONIA","EVARISTO PEREZ ARREOLA",,,,"25110","05","COAHUILA DE ZARAGOZA","030","Saltillo","0001","Saltillo","5681","044",,,,"Fijo","25.47670143","-101.01872772","2019-11"
"8728708","05035722513013181000000000U3","BARBACOA RENEGADO",,"722513","Restaurantes con servicio de preparación de antojitos","0 a 5 personas","AVENIDA","JUAREZ","PROLONGACION","CRISTOBAL COLON","CALLE","JAVIER MINA","AVENIDA","MORELOS","82",,,,,,"COLONIA","CENTRO",,,,"27000","05","COAHUILA DE ZARAGOZA","035","Torreón","0001","Torreón","151A","020","8715061920",,,"Fijo","25.53845841","-103.4501702","2019-11"
"7290460","05027722514000291000000000U0","BARBACOA SALOMON",,"722514","Restaurantes con servicio de preparación de tacos y tortas","0 a 5 personas","BOULEVARD","MARIANO MORALES","CALLE","TEXCOCO","CALLE","EL TAJIN","CALLE","JAMILTEPEC","2020",,,,,,"FRACCIONAMIENTO","ANALCO",,,,"25902","05","COAHUILA DE ZARAGOZA","027","Ramos Arizpe","0001","Ramos Arizpe","1541","004","8443100100",,,"Fijo","25.56178646","-100.95203605","2019-11"
"6428474","05035722513010901010000000U7","BARBACOA Y CARNE ASADA","BARBACOA Y CARNE ASADA ","722514","Restaurantes con servicio de preparación de tacos y tortas","0 a 5 personas","CALLE","PASEO DE LAS JACARANDAS NORTE","CALLE","PASEO DE LAS JACARANDAS ORIENTE","CALLE","COLIBRIES","CALZADA","PASEO DE LOS ÁLAMOS","100","1",,,,,"COLONIA","LEANDRO ROVIROSA WADE",,,,"27110","05","COAHUILA DE ZARAGOZA","035","Torreón","0001","Torreón","0954","067",,,,"Fijo","25.56829432","-103.44207266","2010-07"
"6967326","05035722513020501000000000U3","BARBACOA Y MENUDO DOÑA MARCE",,"722513","Restaurantes con servicio de preparación de antojitos","0 a 5 personas","CALLE","CALLE DE LOS SOMBREROS","AVENIDA","AVENIDA DEL BOSQUE","CALLE","CALLE DEL MERCADO","CALLE","CALLE DE LOS REBOSOS","0","SN",,,"0",,"FRACCIONAMIENTO","VILLAS LA MERCED",,,,"27295","05","COAHUILA DE ZARAGOZA","035","Torreón","0001","Torreón","3126","005",,,,"Fijo","25.51017958","-103.39219336","2019-11"
"263089","05030722513002871000000000U3","BARBACOA Y MENUDO DOÑA MARIA",,"722513","Restaurantes con servicio de preparación de antojitos","0 a 5 personas","CALLE","LAURELES","CALLE","NOGALES","CALLE","NARANJOS","CALLE","SAUCE","1193",,,,,,"COLONIA","IGNACIO ZARAGOZA",,,,"25016","05","COAHUILA DE ZARAGOZA","030","Saltillo","0001","Saltillo","3079","015",,,,"Fijo","25.42147757","-100.93046524","2014-12"
"7435355","05030722513004961000000000U0","BARBACOA Y MENUDO EL MORE",,"722513","Restaurantes con servicio de preparación de antojitos","0 a 5 personas","CALLE","NOGAL","CALLE","SANTIAGO RODRIGUEZ","CALLE","FRANCISCO ZARCO","CALLE","CALLE DE LA HIGUERA",,"SN",,,,,"COLONIA","SANTA ANITA",,,,"25034","05","COAHUILA DE ZARAGOZA","030","Saltillo","0001","Saltillo","2634","007",,,,"Fijo","25.41244698","-100.9917359","2019-11"
"8355840","05030722513004391000000000U0","BARBACOA Y MENUDO SIN NOMBRE",,"722513","Restaurantes con servicio de preparación de antojitos","0 a 5 personas","CALLE","MEZQUITE","CALLE","CACTACEAS","CALLE","SOTOL","CALLE","JUNQUILLO","1377",,,,,,"COLONIA","LOMA LINDA",,,,"25016","05","COAHUILA DE ZARAGOZA","030","Saltillo","0001","Saltillo","4950","054",,,,"Semifijo","25.42374607","-100.91044969","2019-11"
"8356069","05030722513004441000000000U3","BARBACOA Y MENUDO SIN NOMBRE",,"722513","Restaurantes con servicio de preparación de antojitos","0 a 5 personas","CALLE","NOPAL","CALLE","IMPERIO TURCO","CALLE","IMPERIO CHINO","CALLE","IMPERIO SAMURÁI",,"SN",,,,,"COLONIA","RUSTICO FRANCISCO I MADERO",,,,"25016","05","COAHUILA DE ZARAGOZA","030","Saltillo","0001","Saltillo","4965","023","8446671229",,,"Semifijo","25.42487181","-100.90857165","2019-11"
"8354946","05030722513004031000000000U2","BARBACOA Y MENUDO SIN NOMBRE",,"722513","Restaurantes con servicio de preparación de antojitos","0 a 5 personas","CALLE","HUACHICHILES","CALLE","JUAN ESCUTIA","CALLE","CAÑON DE SAN LORENZO","CALLE","CHICHIMECAS",,"SN",,,,,"COLONIA","NUEVO TERESITAS",,,,"25084","05","COAHUILA DE ZARAGOZA","030","Saltillo","0001","Saltillo","5107","042",,,,"Fijo","25.35746186","-101.00529323","2019-11"
"6933160","05017722513001761000000000U4","BIRRIA Y BARBACOA LOS WILLYS 2",,"722513","Restaurantes con servicio de preparación de antojitos","0 a 5 personas","CALLE","PABELLON","AVENIDA","VENUSTIANO CARRANZA","AVENIDA","MIGUEL HIDALGO","CALLE","NIÑOS HÉROES","0","SN",,,"0",,"COLONIA","CENTRO",,,,"27440","05","COAHUILA DE ZARAGOZA","017","Matamoros","0001","Matamoros","0208","013","8712082326",,,"Fijo","25.52898388","-103.22976244","2019-11"
"8355340","05030722513004222000000000U7","BODEGA DE VENTA DE BARBACOA Y MENUDEO SIN NOMBRE",,"722513","Restaurantes con servicio de preparación de antojitos","6 a 10 personas","CALLE","PEDRO ANAYA","CALLE","IGNACIO RAMON","CALLE","IGNACIO ARRIAGA","CALLE","IGNACIO ALTAMIRANO","1200",,,,,,"COLONIA","EL BOSQUE",,,,"25180","05","COAHUILA DE ZARAGOZA","030","Saltillo","0001","Saltillo","0411","001",,,,"Fijo","25.41377537","-101.02803416","2019-11"
"7041279","05035722513016651000000000U2","CHALOS BARBACOA DE BORREGO",,"722513","Restaurantes con servicio de preparación de antojitos","0 a 5 personas","BOULEVARD","INDEPENDENCIA","CALLE","RIO PANUCO","CALLE","RIO BALSAS","CALLE","RÍO DE LA PLATA","1774",,,,"0",,"COLONIA","MAIA",,,,"27010","05","COAHUILA DE ZARAGOZA","035","Torreón","0001","Torreón","0051","048",,,,"Fijo","25.56341599","-103.42967395","2019-11"
"7710936","05035722513014951000000000U8","ELABORACION DE BARBACOA EL JEREZANO",,"722513","Restaurantes con servicio de preparación de antojitos","0 a 5 personas","CALZADA","XOCHIMILCO","CALLE","TENOCHTITLAN","CALLE","PIRAMIDE DE LA LUNA","CALLE","AVIACIÓN","499",,,,,,"COLONIA","FRANCISCO VILLA",,,,"27050","05","COAHUILA DE ZARAGOZA","035","Torreón","0001","Torreón","2611","017",,,,"Fijo","25.55192143","-103.40832096","2019-11"
"8165285","05035722514003141000000000U7","ESTABLECIMIENTO SEMIFIJO TAQUITOS DE BARBACOA",,"722514","Restaurantes con servicio de preparación de tacos y tortas","0 a 5 personas","AVENIDA","ZACATECAS","CALZADA","CUAUHTEMOC","CALLE","MARIANO LOPEZ ORTIZ","CALLE","ARTES GRÁFICAS","1207",,,,"0",,"COLONIA","TORREON CENTRO",,,,"27000","05","COAHUILA DE ZARAGOZA","035","Torreón","0001","Torreón","0102","042",,,,"Fijo","25.55074872","-103.43492878","2019-11"
"8354877","05030722513004011000000000U4","ESTANQUILLO CON VENTA DE BARBACOA Y MENUDO SIN NOMBRE",,"722513","Restaurantes con servicio de preparación de antojitos","0 a 5 personas","CALLE","GENERAL LAZARO CARDENAS","CALLE","CAÑON DE ALAZANES","AVENIDA","TERESITAS","CALLE","CIÉNEGA DEL TORO",,"SN",,,,,"COLONIA","NUEVO TERESITAS",,,,"25084","05","COAHUILA DE ZARAGOZA","030","Saltillo","0001","Saltillo","5107","085",,,,"Semifijo","25.35606972","-101.00040141","2019-11"
"7435391","05030722513004991000000000U7","ESTANQUILLO DE BARBACOA","ESTANQUILLO DE BARBACOA ","722513","Restaurantes con servicio de preparación de antojitos","0 a 5 personas","CALLE","MARIANO ABASOLO","CALLE","MARGARITA MAZA DE JUAREZ","CALLE","MARIA DE JESUS TREVIÑO","CALLE","MARGARITA MAZA DE JUÁREZ",,"SN",,,,,"COLONIA","MAGISTERIO",,,,"25035","05","COAHUILA DE ZARAGOZA","030","Saltillo","0001","Saltillo","2668","009",,,,"Semifijo","25.40873504","-100.99650907","2019-11"
"7040768","05035722513016161000000000U2","ESTANQUILLO DE BARBACOA BARBACOA DEL NORTE",,"722513","Restaurantes con servicio de preparación de antojitos","0 a 5 personas","CALLE","38","BOULEVARD","DIAGONAL REFORMA","AVENIDA","JUAREZ","CALZADA","SALTILLO 400",,"SN",,,,,"COLONIA","NUEVO TORREON",,,,"27060","05","COAHUILA DE ZARAGOZA","035","Torreón","0001","Torreón","0314","018","8711379327",,,"Semifijo","25.53756376","-103.40783407","2019-11"
"277046","05009722513000301000000000U7","GORDITAS DE BARBACOA DON CHENTE",,"722513","Restaurantes con servicio de preparación de antojitos","0 a 5 personas","BOULEVARD","FRANCISCO I. MADERO","CARRETERA","TORREON-SAN PEDRO","CALLE","EULALIO GUTIERREZ TREVIÑO","CALLE","EULALIO GUTIÉRREZ TREVIÑO",,"SN",,,,,"COLONIA","NUEVO LINARES DEL SUR",,,,"27900","05","COAHUILA DE ZARAGOZA","009","Francisco I. Madero","0001","Francisco I. Madero (Chávez)","0051","034",,,,"Semifijo","25.76494979","-103.27844653","2014-12"
"6966095","05035722513018671000000000U8","GORDITAS Y BARBACOA SHALOM",,"722513","Restaurantes con servicio de preparación de antojitos","0 a 5 personas","CALZADA","BARTOLOME DE LAS CASAS","CALLE","SIERRA TLAHUALILO","CALLE","OCTAVIO PAZ","CIRCUITO","AGUSTÍN PRO","251",,,,,,"FRACCIONAMIENTO","LA CORTINA",,,,"27084","05","COAHUILA DE ZARAGOZA","035","Torreón","0001","Torreón","2310","041",,,,"Fijo","25.55702218","-103.35928713","2019-11"
"7283287","05025722514001201000000000U2","LONCHES BARBACOA",,"722514","Restaurantes con servicio de preparación de tacos y tortas","0 a 5 personas","CALLE","SIERRA DE LA ENCANTADA","CALLE","SIERRADE LA ENCANTADA","CALLE","SIERRA DE LA ENCANTADA","PROLONGACION","ROMÁN CEPEDA","111",,,,,,"EJIDO","EJIDO PIEDRAS NEGRAS",,,,"26015","05","COAHUILA DE ZARAGOZA","025","Piedras Negras","0001","Piedras Negras","1142","042",,,,"Fijo","28.71872528","-100.55986845","2019-11"
"257103","05010722513000221000000000U5","LONCHES DE BARBACOA",,"722513","Restaurantes con servicio de preparación de antojitos","0 a 5 personas","BOULEVARD","FELIPE PESCADOR","BOULEVARD","EJERCITO MEXICANO","CALLE","TELEGRAFISTAS MENSAJEROS","CALLE","MECÁNICOS",,"SN",,,,,"COLONIA","MORELOS",,,,"25625","05","COAHUILA DE ZARAGOZA","010","Frontera","0001","Frontera","0175","030",,,,"Semifijo","26.94666233","-101.45140888","2014-12"
"287374","05035722513003361000000000U3","LONCHES Y BARBACOA PEREA",,"722513","Restaurantes con servicio de preparación de antojitos","0 a 5 personas","CALLE","VALDEZ CARRILLO","AVENIDA","PRESIDENTE CARRANZA","BOULEVARD","REVOLUCION","CALLE","ZARAGOZA","15","VC-S3-M15-L1",,,"0",,"COLONIA","CENTRO",,,,"27000","05","COAHUILA DE ZARAGOZA","035","Torreón","0001","Torreón","1562","035",,,,"Semifijo","25.53612545","-103.46218636","2014-12"
"7266440","05018722514000641000000000U5","LONCHES Y TACOS DE BARBACOA LOS JUANES",,"722514","Restaurantes con servicio de preparación de tacos y tortas","0 a 5 personas","CALLE","SAN IDELFONSO FUENTES ORIENTE","CALLE","ZARAGOZA","CALLE","SAN ILDEFONSO FUENTES ORIENTE","CALLE","ALLENDE",,"SN",,,,,"COLONIA","MONCLOVA CENTRO",,,,"25700","05","COAHUILA DE ZARAGOZA","018","Monclova","0001","Monclova","0991","020",,,,"Semifijo","26.90352113","-101.41586084","2019-11"
"8721926","05024722514000191000000000U9","LOS ORIGINALES TACOS DE BARBACOA",,"722514","Restaurantes con servicio de preparación de tacos y tortas","0 a 5 personas","CALLE","2 DE ABRIL","CALLE","GUADALUPE VICTORIA","CALLE","SOR JUANA INES DE LA CRUZ","CALLE","JUAN ANTONIO DE LA FUENTE",,"SN",,,,,"COLONIA","JOSE G MADERO",,,,"27987","05","COAHUILA DE ZARAGOZA","024","Parras","0001","Parras de la Fuente","1164","016","8442924335",,,"Fijo","25.4478349","-102.17602691","2019-11"
"9351960","05030722513007631000000000U6","MENUDO BARBACOA GORDITAS Y MAS",,"722513","Restaurantes con servicio de preparación de antojitos","0 a 5 personas","CALLE","VALENCIA","CALLE","MADRID","CALLE","LA RIOJA","CALLE","VALENCIA","3228",,,,,,"FRACCIONAMIENTO","VALENCIA",,,,"25110","05","COAHUILA DE ZARAGOZA","030","Saltillo","0001","Saltillo","5681","058","8445365850",,,"Fijo","25.47845145","-101.02141406","2021-05"
"275507","05035722519000181000000000U5","MENUDO Y BARBACOA EL CHINO",,"722519","Servicios de preparación de otros alimentos para consumo inmediato","0 a 5 personas","CALLE","VILLA ORIENTE","CALLE","VILLA CAMACHO","AVENIDA","AVENIDA DEL AJUSCO","CALLE","VILLA BECERRA","825",,,,"0",,"FRACCIONAMIENTO","VILLAS ZARAGOZA",,,,"27275","05","COAHUILA DE ZARAGOZA","035","Torreón","0001","Torreón","4162","012",,,,"Fijo","25.51213349","-103.34760689","2014-12"
"297244","05030722513000331000000000U0","MENUDO, BARBACOA Y ANTOJITOS SIN NOMBRE",,"722513","Restaurantes con servicio de preparación de antojitos","0 a 5 personas","CALLE","SAN CARLOS","PROLONGACION","OTILIO GONZALEZ","CALLE","SIN REFERENCIA","CALLE","SIN REFERENCIA","194",,,,,,"COLONIA","SAN VICENTE",,,,"25030","05","COAHUILA DE ZARAGOZA","030","Saltillo","0001","Saltillo","1710","005","8444543974",,,"Fijo","25.40694257","-100.9765827","2010-07"
"8435135","05030722513004661000000000U6","PREPARACION DE MENUDO Y BARBACOA",,"722513","Restaurantes con servicio de preparación de antojitos","0 a 5 personas","CALLE","CAMINO ESCENICO","CALLE","MANUEL PALAFOX","CALLE","AMADA LINAJE","CALLE","LUIS A. BOUREGARD",,"SN",,,,,"COLONIA","FEDERICO BERRUETO RAMON",,,,"25096","05","COAHUILA DE ZARAGOZA","030","Saltillo","0001","Saltillo","4486","013",,,,"Semifijo","25.38040653","-100.9780809","2019-11"
"7591865","05035722513012641000000000U7","PUESTITO DE BARBACOA",,"722513","Restaurantes con servicio de preparación de antojitos","0 a 5 personas","AVENIDA","ZACATECAS","CALZADA","CUAUHTEMOC","CALLE","MARIANO LOPEZ ORTIZ","CALLE","ARTES GRÁFICAS","0","SN",,,"0",,"COLONIA","TORREON CENTRO",,,,"27000","05","COAHUILA DE ZARAGOZA","035","Torreón","0001","Torreón","0102","042",,,,"Semifijo","25.55074752","-103.43444227","2019-11"
"9446687","05018722513001121000000000U9","PUESTO DE BARBACOA",,"722513","Restaurantes con servicio de preparación de antojitos","0 a 5 personas","CALLE","NOGALES","CALLE","CIRUELO","CALLE","CHABACANOS","CALLE","MANZANO",,"SN",,,,,"COLONIA","DEL RIO",,,,"25748","05","COAHUILA DE ZARAGOZA","018","Monclova","0001","Monclova","0718","038",,,,"Fijo","26.92109379","-101.4028044","2023-11"
"265944","05030722513002461000000000U3","PUESTO DE BARBACOA CAMASAKI",,"722513","Restaurantes con servicio de preparación de antojitos","0 a 5 personas","PROLONGACION","CARLOS SALAZAR","PRIVADA","NINGUNO","CALLE","MANUEL DE MEDEROS","CALLE","NINGUNO",,"SN",,,,,"COLONIA","LANDIN",,,,"25070","05","COAHUILA DE ZARAGOZA","030","Saltillo","0001","Saltillo","4363","031","844361194",,,"Semifijo","25.40312584","-101.02570331","2014-12"
"7273519","05030722513006791000000000U9","PUESTO DE BARBACOA EL NOVILLO",,"722513","Restaurantes con servicio de preparación de antojitos","0 a 5 personas","CALLE","2 A","CALLE","5 A","CALLE","CARLOS CARDENAS","CALLE","4 A","0","SN",,,"0",,"FRACCIONAMIENTO","BRISAS PONIENTE",,,,"25169","05","COAHUILA DE ZARAGOZA","030","Saltillo","0001","Saltillo","3755","023",,,,"Semifijo","25.49017236","-100.97917234","2019-11"
"8434913","05030722513004591000000000U5","PUESTO DE BARBACOA EL PRIMO",,"722513","Restaurantes con servicio de preparación de antojitos","0 a 5 personas","BOULEVARD","CEDROS","CALLE","ISLA CEDROS","CALLE","MEXICALI","CALLE","CARPINTERO",,"SN",,,,,"CIUDAD","MIRASIERRA",,,,"25017","05","COAHUILA DE ZARAGOZA","030","Saltillo","0001","Saltillo","579A","030",,,,"Semifijo","25.40421793","-100.91629321","2019-11"
"229429","05030722212001851000000000U5","PUESTO DE TACOS DE BARBACOA",,"722514","Restaurantes con servicio de preparación de tacos y tortas","0 a 5 personas","CALLE","LAGO DE YURIRIA","CALLE","LAGUNA DEL CARMEN","BOULEVARD","ISIDRO LOPEZ ZERTUCHE","CALLE","PEDRO LYONNET","2600",,,,,,"COLONIA","LA SALLE",,,,"25240","05","COAHUILA DE ZARAGOZA","030","Saltillo","0001","Saltillo","2032","013",,,,"Semifijo","25.45506043","-100.99504851","2010-07"
"6966600","05035722513019351000000000U6","RICA BARBACOA CRISTY",,"722513","Restaurantes con servicio de preparación de antojitos","0 a 5 personas","CALLE","CALLE DE LA ESTACION","CALLE","CALLE DEL CARBON","CALLE","CALLE DE LOS JABONES","AVENIDA","AVENIDA DEL BOSQUE","20",,,,,,"COLONIA","VILLAS LA MERCED",,,,"27295","05","COAHUILA DE ZARAGOZA","035","Torreón","0001","Torreón","315A","006",,,,"Fijo","25.50178989","-103.39524454","2019-11"
"297601","05035722212004661000000000U4","TACOS DE BARBACOA",,"722514","Restaurantes con servicio de preparación de tacos y tortas","0 a 5 personas","CALLE","ZARAGOZA","AVENIDA","PRESIDENTE CARRANZA","BOULEVARD","REVOLUCION","CALLE","VALDEZ CARRILLO",,"SN",,,,,"COLONIA","CENTRO",,,,"27000","05","COAHUILA DE ZARAGOZA","035","Torreón","0001","Torreón","1562","035",,,,"Semifijo","25.53553839","-103.46294939","2010-07"
"270287","05030722513002141010000000U1","TACOS DE BARBACOA",,"722514","Restaurantes con servicio de preparación de tacos y tortas","0 a 5 personas","CALLE","NINGUNO","CALLE","PABLO L. SIDAR","CALLE","CARLOS SANTANA","CALLE","PRINCIPAL","1214","A4",,,"0",,"COLONIA","ZONA CENTRO",,,,"25000","05","COAHUILA DE ZARAGOZA","030","Saltillo","0001","Saltillo","0159","021","8442697219",,,"Fijo","25.4360529","-101.00627164","2014-12"
"6966461","05035722514003901000000000U4","TACOS DE BARBACOA CARO",,"722514","Restaurantes con servicio de preparación de tacos y tortas","0 a 5 personas","CALLE","FIDEL VELAZQUEZ","CALLE","BERNARDO COBOS","BOULEVARD","RICARDO FLORES MAGON","CALLE","JOSÉ MARÍA MARTÍNEZ",,"SN",,,,,"COLONIA","FIDEL VELAZQUEZ",,,,"27059","05","COAHUILA DE ZARAGOZA","035","Torreón","0001","Torreón","1223","016",,,,"Semifijo","25.55224313","-103.37847535","2019-11"
"296478","05035722514001931000000000U3","TACOS DE BARBACOA GOYITO",,"722514","Restaurantes con servicio de preparación de tacos y tortas","0 a 5 personas","BOULEVARD","REVOLUCION","CALLE","MELCHOR MUZQUIZ","CALLE","RAMOS ARIZPE","AVENIDA","PRESIDENTE CARRANZA",,"SN",,,,,"COLONIA","CENTRO",,,,"27000","05","COAHUILA DE ZARAGOZA","035","Torreón","0001","Torreón","3215","032",,,,"Semifijo","25.53482175","-103.46555629","2010-07"
"8631356","05025722514000961000000000U2","TACOS DE BARBACOA LOS HERMANOS",,"722514","Restaurantes con servicio de preparación de tacos y tortas","0 a 5 personas","PROLONGACION","ROMAN CEPEDA","AVENIDA","ADOLFO LOPEZ MATEOS","CALLE","LERDO","CALLE","TOREO",,"SN",,,"600",,"COLONIA","BUENA VISTA NORTE",,,,"26040","05","COAHUILA DE ZARAGOZA","025","Piedras Negras","0001","Piedras Negras","0553","018",,,,"Fijo","28.69772577","-100.5377525","2019-11"
"9103957","05017722514000461000000000U0","TACOS DE BARBACOA MANA",,"722514","Restaurantes con servicio de preparación de tacos y tortas","0 a 5 personas","CALZADA","CRISTOBAL DIAZ","CALLE","NUEVO MEXICO","AVENIDA","DONATO GUERRA","CALLE","JUÁREZ","1005",,,,"0",,"COLONIA","JOSE SANTOS VALDES",,,,"27444","05","COAHUILA DE ZARAGOZA","017","Matamoros","0001","Matamoros","0937","050","8717098581",,,"Semifijo","25.52044606","-103.22034725","2019-11"
"8469569","05009722514000181000000000U1","TACOS DE BARBACOA MEDINA",,"722514","Restaurantes con servicio de preparación de tacos y tortas","0 a 5 personas","CALLE","CONSTITUCION","CALLE","RAMOS ARIZPE","BOULEVARD","MOREIRA","CALLE","AVENIDA PRIMERO DE MAYO",,"SN",,,,,"COLONIA","CENTRO",,,,"27900","05","COAHUILA DE ZARAGOZA","009","Francisco I. Madero","0001","Francisco I. Madero (Chávez)","0530","041",,,,"Semifijo","25.77603669","-103.27372919","2019-11"
"7040932","05035722514003321000000000U5","TACOS DE BARBACOA NAZAS",,"722514","Restaurantes con servicio de preparación de tacos y tortas","0 a 5 personas","CALLE","RIO NAZAS","CALLE","RIO SUCHIATE","CALLE","RIO FLORIDO","CALLE","RÍO FLORIDO",,"SN",,,,,"COLONIA","MAGDALENAS",,,,"27010","05","COAHUILA DE ZARAGOZA","035","Torreón","0001","Torreón","0066","024",,,,"Semifijo","25.56342471","-103.41860453","2019-11"
"271717","05024722514000011000000000U9","TACOS DE BARBACOA RAMIRO",,"722514","Restaurantes con servicio de preparación de tacos y tortas","0 a 5 personas","PROLONGACION","CALZADA DEL MARQUES","CALLE","2 DE ABRIL","BOULEVARD","5 DE MAYO","CALLE","2 DE ABRIL",,"SN",,,,,"COLONIA","JOSE G MADERO",,,,"27989","05","COAHUILA DE ZARAGOZA","024","Parras","0001","Parras de la Fuente","1164","008","8421185842",,,"Fijo","25.44858288","-102.17619569","2014-12"
"290478","05017722212000411000000000U6","TACOS DE BARBACOA RICHY",,"722514","Restaurantes con servicio de preparación de tacos y tortas","0 a 5 personas","BOULEVARD","MATAMOROS-TORREON","AVENIDA","AVENIDA DEL RIO","AVENIDA","AVENIDA DEL VALLE","AVENIDA","AVENIDA DEL RÍO",,"SN",,,,,"CIUDAD","MATAMOROS",,,,"27440","05","COAHUILA DE ZARAGOZA","017","Matamoros","0001","Matamoros","0960","036",,,,"Fijo","25.53514271","-103.25330495","2010-07"
"260720","05004722513000031010000000U1","TACOS DE BARBACOA SOLIS",,"722514","Restaurantes con servicio de preparación de tacos y tortas","0 a 5 personas","CALLE","LA PALMA","CALLE","DEMOCRACIA","CALLE","JUAN ANTONIO DE LA FUENTE","CALLE","VICENTE GUERRERO",,"SN",,,,,"COLONIA","FRACC POTRERO DE ABREGO",,,,"25350","05","COAHUILA DE ZARAGOZA","004","Arteaga","0001","Arteaga","0214","026",,,,"Fijo","25.44582005","-100.84371566","2014-12"
"7279158","05025722514001571000000000U8","TACOS DED BARBACOA LA CQ",,"722514","Restaurantes con servicio de preparación de tacos y tortas","0 a 5 personas","CALLE","JOAQUIN PEÑA","PROLONGACION","TABASCO","CALLE","TAMPICO","CALLE","EMILIO SANDOVAL","204",,,,"0",,"COLONIA","SAN JOAQUIN",,,,"26094","05","COAHUILA DE ZARAGOZA","025","Piedras Negras","0001","Piedras Negras","0873","003",,,,"Fijo","28.65092403","-100.5492381","2019-11"
"277140","05009722219000161010000000U9","TACOS Y BARBACOA MI ZORRIS",,"722514","Restaurantes con servicio de preparación de tacos y tortas","0 a 5 personas","CALLE","AVENIDA NIÑOS HEROES","CALLE","NIZA","CALLE","AVENIDA NAPOLES","CALLE","AVENIDA NÁPOLES",,"SN",,,,,"COLONIA","FRANCISCO I. MADERO CENTRO",,,,"27900","05","COAHUILA DE ZARAGOZA","009","Francisco I. Madero","0001","Francisco I. Madero (Chávez)","0051","025",,,,"Semifijo","25.76888093","-103.27542794","2014-12"
"255227","05018722514000281000000000U0","TACOS Y LONCHES DE BARBACOA Y GORDITAS",,"722514","Restaurantes con servicio de preparación de tacos y tortas","0 a 5 personas","CALLE","GUSTAVO DIAZ ORDAZ","CALLE","CALLE DE LAS TORRES","CALLE","RIO LERMA","CALLE","GUSTAVO DÍAZ ORDAZ",,"SN",,,,,"COLONIA","FRACCIONAMIENTO AGUILAR",,,,"25745","05","COAHUILA DE ZARAGOZA","018","Monclova","0001","Monclova","1701","015",,,,"Semifijo","26.89013621","-101.39683238","2014-12"
"8630765","05002722513000551000000000U2","VAMOS CON JAIME BARBACOA",,"722513","Restaurantes con servicio de preparación de antojitos","0 a 5 personas","CALLE","VICENTE GUERRERO","CALLE","AGUSTIN DE ITURBIDE","CALLE","GENERAL CEPEDA","CALLE","LERDO DE TEJADA","1060","B",,,,,"COLONIA","CENTRO",,,,"26200","05","COAHUILA DE ZARAGOZA","002","Acuña","0001","Ciudad Acuña","1735","025","8771099762",,,"Fijo","29.31717852","-100.93190665","2019-11"
"7436113","05002722513000651000000000U0","VAMOS CON JAIME BARBACOA",,"722513","Restaurantes con servicio de preparación de antojitos","0 a 5 personas","CALLE","15 DE NOVIEMBRE","CALLE","FERNANDO MONTES DE OCA","CALLE","AGUSTIN MELGAR","BOULEVARD","LIBRAMIENTO EMILIO MENDOZA CISNEROS","650",,,,,,"COLONIA","EMILIANO ZAPATA",,,,"26236","05","COAHUILA DE ZARAGOZA","002","Acuña","0001","Ciudad Acuña","2875","021","8771057167",,,"Fijo","29.33399238","-100.98497859","2019-11"
"8692925","05010722513000401000000000U3","VENTA DE BARBACOA",,"722513","Restaurantes con servicio de preparación de antojitos","0 a 5 personas","CALLE","HERMANOS WRIGHT","CALLE","HELIPUERTO","CALLE","AERONAUTICA","CALLE","HELIPUERTO","107",,,,,,"COLONIA","AVIACION",,,,"25617","05","COAHUILA DE ZARAGOZA","010","Frontera","0001","Frontera","0480","010",,,,"Fijo","26.9517205","-101.4522168","2019-11"
"270062","05030722513001981000000000U1","VENTA DE BARBACOA","VENTA DE BARBACOA ","722513","Restaurantes con servicio de preparación de antojitos","0 a 5 personas","CALLE","PEPI","CALLE","ABRAHAM CEPEDA","CALLE","DAVID BERLANGA","CALLE","DAVID BERLANGA","1431",,,,,,"COLONIA","TOPOCHICO",,"OTRO TIPO DE CONGLOMERADO SIN NOMBRE","1","25284","05","COAHUILA DE ZARAGOZA","030","Saltillo","0001","Saltillo","2386","017",,,,"Fijo","25.4315772","-100.98297167","2014-12"
"8354984","05030722513004071000000000U8","VENTA DE BARBACOA",,"722513","Restaurantes con servicio de preparación de antojitos","0 a 5 personas","CALLE","JOSE ESPINOZA FUENTES","CALLE","NEZAHUALCOYOTL","CALLE","TIZOC","CALLE","NEZAHUALCÓYOTL","1850",,,,,,"COLONIA","ANAHUAC",,,,"25130","05","COAHUILA DE ZARAGOZA","030","Saltillo","0001","Saltillo","216A","033",,,,"Fijo","25.44450614","-101.00773038","2019-11"
"9434108","05030722513007731000000000U4","VENTA DE BARBACOA DANI",,"722513","Restaurantes con servicio de preparación de antojitos","0 a 5 personas","CALLE","NINGUNO","CALLE","MEZQUITE","CALLE","MAZAMITLA","CALLE","MIER",,"SN",,,,,"COLONIA","COLINAS DE SANTIAGO",,,,"25016","05","COAHUILA DE ZARAGOZA","030","Saltillo","0001","Saltillo","4151","088",,,,"Fijo","25.42706467","-100.9117331","2023-11"
"234934","05030461110009651010000000U2","VENTA DE BARBACOA DE QUERO BABI M DE O A QUMARAL M DE I",,"722513","Restaurantes con servicio de preparación de antojitos","0 a 5 personas","CALLE","ISLAS MARIANAS","CALLE","MALASIA","CALLE","POLINESIA","CALLE","ISLAS CAROLINAS","552",,,,,,"FRACCIONAMIENTO","OCEANIA",,,,"25290","05","COAHUILA DE ZARAGOZA","030","Saltillo","0001","Saltillo","2102","031",,,,"Fijo","25.43987254","-100.96764594","2010-07"
"7273460","05027722513001121000000000U0","VENTA DE BARBACOA DOÑA MAGUE",,"722513","Restaurantes con servicio de preparación de antojitos","0 a 5 personas","CALLE","RIO VOLGA","CALLE","RIO BALSAS","CALLE","RIO MISSISSIPPI","CALLE","RÍO DANUBIO",,"SN",,,,,"COLONIA","MANANTIALES DEL VALLE",,,,"25900","05","COAHUILA DE ZARAGOZA","027","Ramos Arizpe","0001","Ramos Arizpe","0736","017","8444524241","MAGUE1078@HOTMAIL.COM",,"Semifijo","25.51852899","-100.94038455","2019-11"
"283491","05035722513000941000000000U5","VENTA DE BARBACOA EL CHE",,"722513","Restaurantes con servicio de preparación de antojitos","0 a 5 personas","CALLE","AVENIDA SAN PEDRO DE LAS COLONIAS","CALLE","CALLE QUERETARO","CALLE","CALLE SONORA","AVENIDA","AVENIDA OSCAR FLORES TAPIA","750",,,,,,"COLONIA","LAS JULIETAS",,,,"27296","05","COAHUILA DE ZARAGOZA","035","Torreón","0001","Torreón","1971","012",,,,"Fijo","25.50001296","-103.40086019","2014-12"
"238194","05030722212003411010000000U6","VENTA DE BARBACOA LOS DOMINGOS",,"722513","Restaurantes con servicio de preparación de antojitos","0 a 5 personas","CALLE","LERDO DE TEJADA","CALLE","GUILLERMO PURCELL","CALLE","ÁLVARO OBREGON","CALLE","GENERAL MANUEL PÉREZ TREVIÑO","721",,,,,,"COLONIA","SALTILLO CENTRO",,,,"25000","05","COAHUILA DE ZARAGOZA","030","Saltillo","0001","Saltillo","0233","002",,,,"Fijo","25.42798302","-101.00504696","2010-07"
"7782425","05035722513015151000000000U4","VENTA DE BARBACOA LOS MUÑECOS",,"722513","Restaurantes con servicio de preparación de antojitos","0 a 5 personas","AVENIDA","UNIVERSIDAD","CALLE","CALLE DE LAS FRUTAS","BOULEVARD","PEDRO RODRIGUEZ TRIANA","CALLE","METATES",,"SN",,,,,"FRACCIONAMIENTO","FRACC NUEVA MERCED",,,,"27295","05","COAHUILA DE ZARAGOZA","035","Torreón","0001","Torreón","3111","011","8711114815",,,"Fijo","25.51200115","-103.39420799","2019-11"
"6428126","05035722513010871000000000U2","VENTA DE BARBACOA SIN NOMBRE",,"722513","Restaurantes con servicio de preparación de antojitos","0 a 5 personas",,"Nuez Moscada",,"NINGUNO",,"NINGUNO",,"NINGUNO","312",,,,"0",,"FRACCIONAMIENTO","SOL DE ORIENTE",,,,"27087","05","COAHUILA DE ZARAGOZA","035","Torreón","0001","Torreón","3573","070",,,,"Fijo","25.53646444","-103.32941075","2014-12"
"7273599","05030722513006841000000000U2","VENTA DE BARBACOA SIN NOMBRE",,"722513","Restaurantes con servicio de preparación de antojitos","0 a 5 personas","CALLE","PEDRO AMPUDIA","CALLE","MIGUEL NEGRETE","CALLE","JOSE MARIA RUIZ MORA","CALLE","1","221",,,,,,"COLONIA","GUAYULERA",,,,"25167","05","COAHUILA DE ZARAGOZA","030","Saltillo","0001","Saltillo","248A","034",,,,"Fijo","25.42085347","-101.02042307","2019-11"
"7466996","05030722513006211000000000U8","VENTA DE BARBACOA SIN NOMBRE",,"722513","Restaurantes con servicio de preparación de antojitos","0 a 5 personas","CALLE","BALTAZAR ACOLT","CALLE","PEDRO DIAZ","CALLE","MARCOS TEZEZEPOC","CALLE","PEDRO GENTIL","1","B",,,,,"COLONIA","NUEVA TLAXCALA",,,,"25019","05","COAHUILA DE ZARAGOZA","030","Saltillo","0001","Saltillo","4429","034","8443195927",,,"Fijo","25.40314394","-100.96269976","2019-11"
"8443782","05030722513004821000000000U6","VENTA DE BARBACOA SIN NOMBRE",,"722513","Restaurantes con servicio de preparación de antojitos","0 a 5 personas","CALLE","34","CALLE","SAN VALENTIN","CALLE","17","CALLE","RECUERDO",,"SN",,,,,"FRACCIONAMIENTO","AMISTAD III",,,,"25013","05","COAHUILA DE ZARAGOZA","030","Saltillo","0001","Saltillo","5253","012",,,,"Semifijo","25.40133659","-100.93775639","2019-11"
"8435465","05030722513004771000000000U3","VENTA DE BARBACOA SIN NOMBRE",,"722513","Restaurantes con servicio de preparación de antojitos","0 a 5 personas","CALLE","GENERAL CEPEDA","CALLE","YEMEN","CALLE","ISRAEL","CALLE","CAMINO VECINAL A GENERAL CEPEDA","329",,,,,,"COLONIA","NUEVA JERUSALEM",,,,"25294","05","COAHUILA DE ZARAGOZA","030","Saltillo","0001","Saltillo","458A","003",,,,"Fijo","25.39415405","-101.03107843","2019-11"
"8435468","05030722513004791000000000U1","VENTA DE BARBACOA SIN NOMBRE",,"722513","Restaurantes con servicio de preparación de antojitos","0 a 5 personas","CALLE","REGENERACION","CALLE","SIRIA","CALLE","PRAXEDIS GUERRERO","CALLE","JUAN CORPUS",,"SN",,,,,"COLONIA","RICARDO FLORES MAGON",,,,"25124","05","COAHUILA DE ZARAGOZA","030","Saltillo","0001","Saltillo","4382","008","8443512027",,,"Fijo","25.38848874","-101.02678363","2019-11"
"8721870","05027722513001191000000000U3","VENTA DE BARBACOA SIN NOMBRE",,"722513","Restaurantes con servicio de preparación de antojitos","0 a 5 personas","CALLE","AJALPAN","CALLE","ANCONES","CALLE","CHICHEN ITZA","BOULEVARD","ANALCO","541",,,,,,"FRACCIONAMIENTO","ANALCO",,,,"25902","05","COAHUILA DE ZARAGOZA","027","Ramos Arizpe","0001","Ramos Arizpe","1537","047",,,,"Fijo","25.56301892","-100.94915081","2019-11"
"8355212","05030722513004141000000000U9","VENTA DE BARBACOA SIN NOMBRE FINES DE SEMANA",,"722513","Restaurantes con servicio de preparación de antojitos","0 a 5 personas","CALLE","PEDRO ANAYA","CALLE","MANUEL PEDRAZA","CALLE","JOAQUIN HERRERA","CALLE","PORFIRIO DÍAZ MORY","1832","SN",,,,,"COLONIA","LA MINITA",,,,"25170","05","COAHUILA DE ZARAGOZA","030","Saltillo","0001","Saltillo","159A","009",,,,"Fijo","25.40862864","-101.03253146","2019-11"
"7467404","05030722513006351000000000U2","VENTA DE BARBACOA Y MENUDO",,"722513","Restaurantes con servicio de preparación de antojitos","0 a 5 personas","CALLE","CALLE 9","CALLE","CALLE 33","CALLE","CALLE 36","CALLE","CALLE 7","3620",,,,,,"COLONIA","FRACCIONAQMIENTO MORELOS",,,,"25017","05","COAHUILA DE ZARAGOZA","030","Saltillo","0001","Saltillo","5376","015",,,,"Fijo","25.39921743","-100.94149238","2019-11"
"267089","05030722513002991000000000U9","VENTA DE BARBACOA Y MENUDO",,"722513","Restaurantes con servicio de preparación de antojitos","0 a 5 personas","BOULEVARD","HUMBERTO CID GONZALEZ","CALLE","ABEL BARRAGAN","BOULEVARD","PROFESOR JOSE RAMIREZ MIJARES","CALLE","FRANCISCO H. GARZA","3403",,,,,,"COLONIA","AMPLIACION 26 DE MARZO IV SECTOR",,,,"25086","05","COAHUILA DE ZARAGOZA","030","Saltillo","0001","Saltillo","2920","033",,,,"Fijo","25.38545031","-101.01259751","2014-12"
"8355272","05030722513004181000000000U5","VENTA DE BARBACOA Y MENUDO DON MARIO",,"722513","Restaurantes con servicio de preparación de antojitos","0 a 5 personas","PERIFERICO","LUIS ECHEVERRIA","CALLE","VALLE DE LAS MARAVILLAS","CALLE","VALLE DE LAS MARAVILLAS","CALLE","LOS OLIVOS",,"SN",,,,,"CONDOMINIO","PATRIA NUEVA",,,,"25194","05","COAHUILA DE ZARAGOZA","030","Saltillo","0001","Saltillo","5323","001",,,,"Fijo","25.40187464","-101.03171167","2019-11"
"7273386","05027722513001051000000000U9","VENTA DE BARBACOA Y MENUDO EL BOCHITO",,"722513","Restaurantes con servicio de preparación de antojitos","0 a 5 personas","PRIVADA","PINO BALSAIN","CALLE","PINO CANARIO",,"NINGUNO","PRIVADA","PINO CARRASCO","325",,,,"0",,"FRACCIONAMIENTO","VALLE DE LOS PINOS",,,,"25905","05","COAHUILA DE ZARAGOZA","027","Ramos Arizpe","0001","Ramos Arizpe","1397","028","8444524043",,,"Fijo","25.54161193","-100.96550741","2019-11"
"7273323","05027722513001042000000000U8","VENTA DE BARBACOA Y MENUDO EL INGE",,"722513","Restaurantes con servicio de preparación de antojitos","6 a 10 personas","CALLE","PINO DE HONDURAS","CALLE","PINO TAEDA",,"MONTE","CALLE","PINO PUMILIO","516",,,,"0",,"COLONIA","PARAJES DE LOS PINOS",,,,"25905","05","COAHUILA DE ZARAGOZA","027","Ramos Arizpe","0001","Ramos Arizpe","1734","022","8443002712","ESTRUCTURAS1953@HOTMAIL.COM",,"Fijo","25.53080585","-100.97442006","2019-11"
"8837561","05030722513005491000000000U7","VENTA DE BARBACOA Y MENUDO EL NOVILLO",,"722513","Restaurantes con servicio de preparación de antojitos","0 a 5 personas","CALLE","17","CALLE","28","CALLE","26","CALLE","14 DE FEBRERO","2759",,,,,,"COLONIA","AMPLIACION MORELOS",,,,"25017","05","COAHUILA DE ZARAGOZA","030","Saltillo","0001","Saltillo","2691","043","8444610914",,,"Semifijo","25.40740761","-100.93979809","2019-11"
"8722570","05030722513007451000000000U9","VENTA DE BARBACOA Y MENUDO LOS DOMINGOS",,"722513","Restaurantes con servicio de preparación de antojitos","0 a 5 personas","BOULEVARD","BOULEVARD MORELOS","CALLE","JILGUERO","CALLE","CENZONTLE","CALLE","JILGUERO","224",,,,,,"COLONIA","15 DE SEPTIEMBRE",,,,"25012","05","COAHUILA DE ZARAGOZA","030","Saltillo","0001","Saltillo","2691","014",,,,"Fijo","25.40465981","-100.94258151","2019-11"
"8224945","05030722513003851000000000U4","VENTA DE BARBACOA Y MENUDO LOS KEKES",,"722513","Restaurantes con servicio de preparación de antojitos","0 a 5 personas","CALLE","ALAMEDA ZARAGOZA","CALLE","DERRAMADERO","CALLE","PASEO PROVIDENCIA","CALLE","LA VENTURA",,"SN",,,,,"FRACCIONAMIENTO","SALTILLO 2000",,,,"25115","05","COAHUILA DE ZARAGOZA","030","Saltillo","0001","Saltillo","5427","040",,,,"Fijo","25.46023228","-101.0243682","2019-11"
"8354959","05030722513004051000000000U0","VENTA DE BARBACOA Y MENUDO SIN NOMBRE",,"722513","Restaurantes con servicio de preparación de antojitos","0 a 5 personas","CALLE","INGENIERO RAMON DE LEON","CALLE","C.P. JOSE ELEAZAR GALINDO VARA","CALLE","25","PROLONGACION","VICENTE GUERRERO",,"SN",,,,,"COLONIA","FEDERICO BERRUETO RAMON",,,,"25097","05","COAHUILA DE ZARAGOZA","030","Saltillo","0001","Saltillo","4611","014",,,,"Semifijo","25.38751504","-100.97700415","2019-11"
"6933819","05017722513002192000000000U1","VENTA DE MENUDO Y BARBACOA",,"722513","Restaurantes con servicio de preparación de antojitos","6 a 10 personas","CALZADA","CRISTOBAL DIAZ","AVENIDA","BENITO JUAREZ","PRIVADA","2 DE OCTUBRE","CALLE","ANDRÉS ROSALES",,"SN",,,,,"COLONIA","JOSE T LUNA",,,,"27444","05","COAHUILA DE ZARAGOZA","017","Matamoros","0001","Matamoros","0299","047",,,,"Fijo","25.52235481","-103.22023209","2019-11"
"8434948","05030722513004601000000000U2","VENTA DE MENUDO Y BARBACOA SIN NOMBRE",,"722513","Restaurantes con servicio de preparación de antojitos","0 a 5 personas","CALLE","ALVARO OBREGON","CALLE","HEROE DE NACOZARI","PRIVADA","ÁLVARO OBREGON","CALLE","CARLOS SALAZAR","906",,,,,,"COLONIA","CENTRO",,,,"25000","05","COAHUILA DE ZARAGOZA","030","Saltillo","0001","Saltillo","0375","024",,,,"Fijo","25.41643356","-101.01300231","2019-11"
"7273836","05030722513006921000000000U2","VILLANUEVA BARBACOA Y MENUDO",,"722513","Restaurantes con servicio de preparación de antojitos","0 a 5 personas","CALLE","CUARTA","CALLE","REGENERACION","CALLE","CALLE PRIMERA","CALLE","NINGUNO",,"SN",,,,,"COLONIA","RICARDO FLORES MAGON",,,,"25124","05","COAHUILA DE ZARAGOZA","030","Saltillo","0001","Saltillo","4382","033","8441203495",,,"Fijo","25.39050621","-101.0273214","2019-11"
"7042390","06002722513002571000000000U7","BARBACOA",,"722513","Restaurantes con servicio de preparación de antojitos","0 a 5 personas","AVENIDA","NIÑOS HEROES DE CHAPULTEPEC","CALLE","TEPIC","CALLE","MULEGE","CALLE","MULEGÉ",,"SN",,,,,"COLONIA","VICENTE GUERRERO",,,,"28048","06","COLIMA","002","Colima","0001","Colima","0549","056",,,,"Semifijo","19.23570983","-103.6934174","2019-11"
"9360951","06005722513000311000000000U3","BARBACOA",,"722513","Restaurantes con servicio de preparación de antojitos","0 a 5 personas","CALLE","DEGOLLADO","CALLE","FRANCISCO VILLA","CALLE","FRANCISCO JAVIER MINA","CALLE","AQUILES SERDÁN",,"SN",,,,,"COLONIA","CENTRO",,,,"28500","06","COLIMA","005","Cuauhtémoc","0001","Cuauhtémoc","0220","009",,,,"Fijo","19.32799559","-103.59828541","2021-05"
"6994365","06001722514000981000000000U0","BARBACOA BECERRA",,"722514","Restaurantes con servicio de preparación de tacos y tortas","0 a 5 personas","AVENIDA","NEZAHUALCOYOTL","AVENIDA","20 DE NOVIEMBRE","CALLE","AMADO NERVO","CALLE","TABASCO","91",,,,"0",,"COLONIA","ARMERIA CENTRO",,,,"28300","06","COLIMA","001","Armería","0001","Ciudad de Armería","0382","005",,,,"Fijo","18.93544529","-103.96763177","2019-11"
"7083652","06009722513000851000000000U0","BARBACOA CHAYO",,"722513","Restaurantes con servicio de preparación de antojitos","0 a 5 personas","CALLE","MEDELLIN","CALLE","PLAYAS DE CUYUTLAN","CALLE","PLAYAS DE SANTIAGO ORIENTE","CALLE","18 DE JULIO","933",,,,"0",,"COLONIA","LAS PALMAS",,,,"28180","06","COLIMA","009","Tecomán","0001","Tecomán","054A","008",,,,"Fijo","18.90352701","-103.87400009","2019-11"
"7111617","06009722513001781000000000U8","BARBACOA DANY",,"722513","Restaurantes con servicio de preparación de antojitos","0 a 5 personas","CALLE","VALLE QUERIDO","PROLONGACION","MORELOS","CALLE","GAVIOTAS","CALLE","OAXACA",,"SN",,,,,"COLONIA","COFRADIA DE JUAREZ",,,,"28120","06","COLIMA","009","Tecomán","0001","Tecomán","0465","010","3133292087",,,"Fijo","18.9258187","-103.87255894","2019-11"
"322259","06010722513000011000000000U3","BARBACOA DE BORREGO EL CAPORAL",,"722513","Restaurantes con servicio de preparación de antojitos","0 a 5 personas","AVENIDA","ENRIQUE CORONA MORFIN","CALLE","AGUA FRIA","CALLE","PUEBLO NUEVO","CALLE","NARANJAL","95","B",,,,,"COLONIA","CAMPESTRE BUGAMBILIAS",,,,"28989","06","COLIMA","010","Villa de Álvarez","0001","Ciudad de Villa de Álvarez","0358","038",,,,"Fijo","19.27470322","-103.7403057","2010-07"
"324369","06010722219000131010000000U9","BARBACOA DE BORREGO EL ESTABLO",,"722513","Restaurantes con servicio de preparación de antojitos","0 a 5 personas","AVENIDA","PABLO SILVA GARCIA","CALLE","RAMON BETANCOURT","AVENIDA","GENERAL JOSE D. RUIZ","CALLE","LICENCIADO FRANCISCO VELASCO CURIEL","0","SN",,,"0",,"COLONIA","EL CENTENARIO",,,,"28984","06","COLIMA","010","Villa de Álvarez","0001","Ciudad de Villa de Álvarez","0413","005",,,,"Fijo","19.25520985","-103.75419417","2010-07"
"9254037","06010722513002471000000000U3","BARBACOA DE BORREGO LA HACIENDA II",,"722513","Restaurantes con servicio de preparación de antojitos","0 a 5 personas","CALLE","MANZANO","CALLE","ABEDUL","AVENIDA","NIÑOS HEROES DE CHAPULTEPEC","CALLE","MANZANO","1250","B",,,,,"COLONIA","LA RESERVA",,,,"28984","06","COLIMA","010","Villa de Álvarez","0001","Ciudad de Villa de Álvarez","1074","026",,,,"Fijo","19.26580017","-103.77137551","2020-11"
"317481","06002722219001921000000000U9","BARBACOA DE RES DON GABY",,"722513","Restaurantes con servicio de preparación de antojitos","0 a 5 personas","CALLE","MAGNOLIA","AVENIDA","GONZALO DE SANDOVAL","CALLE","GIRASOL","CALLE","CLAVEL","0","SN",,,"0",,"COLONIA","JARDINES DE LA ESTANCIA",,,,"28047","06","COLIMA","002","Colima","0001","Colima","0572","006","6692382817",,,"Fijo","19.23911157","-103.68806228","2010-07"
"8948753","06010722513002271000000000U7","BARBACOA DE RES DON GABY II",,"722513","Restaurantes con servicio de preparación de antojitos","0 a 5 personas","AVENIDA","NIÑOS HEROES DE CHAPULTEPEC","CALLE","DE LOS TULIPANES","CALLE","DE LA ROSA","CALLE","ABEDUL","955","L-1",,,,,"FRACCIONAMIENTO","TULIPANES",,,,"28983","06","COLIMA","010","Villa de Álvarez","0001","Ciudad de Villa de Álvarez","1089","019",,,,"Fijo","19.26304128","-103.7656549","2019-11"
"333119","06002722513000901000000000U8","BARBACOA DE RES POLO",,"722513","Restaurantes con servicio de preparación de antojitos","0 a 5 personas","CALLE","PRIMAVERA","PRIVADA","MOCTEZUMA","AVENIDA","FRANCISCO JAVIER MINA","AVENIDA","ANASTASIO BRIZUELA","0","SN",,,"0",,"COLONIA","CENTRO",,,,"28000","06","COLIMA","002","Colima","0001","Colima","127A","014","3121355495",,,"Semifijo","19.24272488","-103.73572028","2014-12"
"9254118","06009722514003091000000000U8","BARBACOA DIVINO ROSTRO",,"722514","Restaurantes con servicio de preparación de tacos y tortas","0 a 5 personas","CALLE","RIO PAPALOAPAN","ANDADOR","ANDADOR 5","CALLE","RIO USUMACINTA","CALLE","RÍO GRIJALVA","68",,,,,,"COLONIA","INDECO",,,,"28170","06","COLIMA","009","Tecomán","0001","Tecomán","0573","020",,,,"Fijo","18.90484658","-103.8893404","2020-11"
"322267","06010722219000971000000000U8","BARBACOA DON GABY",,"722513","Restaurantes con servicio de preparación de antojitos","0 a 5 personas","CALLE","CARMEN SERDAN","CALLE","AGUA DULCE","PRIVADA","CARMEN SERDAN","CALLE","JULUAPAN","235",,,,"0",,"COLONIA","CAMPESTRE",,,,"28988","06","COLIMA","010","Villa de Álvarez","0001","Ciudad de Villa de Álvarez","0358","019",,,,"Fijo","19.27202192","-103.74054298","2010-07"
"319260","06002722110000081000000000U4","BARBACOA DON PEPE",,"722513","Restaurantes con servicio de preparación de antojitos","0 a 5 personas","AVENIDA","ACAPULCO","CALLE","CUERNAVACA","CALLE","GUADALAJARA","CALLE","AGUASCALIENTES","1290",,,,"0",,"COLONIA","NUEVO PARAISO",,,,"28048","06","COLIMA","002","Colima","0001","Colima","0962","004","3121073673","BARBACOADONPEPE@HOTMAI.COM",,"Fijo","19.23592169","-103.70199446","2010-07"
"322576","06002722219003251000000000U9","BARBACOA DON VALENTIN",,"722513","Restaurantes con servicio de preparación de antojitos","0 a 5 personas","CALLE","VALERIO TRUJANO","AVENIDA","DE LOS MAESTROS","CALLE","CENTENARIO","CALLE","BARTOLOMÉ DE LAS CASAS","423",,,,,,"COLONIA","MAGISTERIAL",,,,"28000","06","COLIMA","002","Colima","0001","Colima","0680","022",,,,"Fijo","19.25428913","-103.72949647","2010-07"
"325070","06009722219002561000000000U7","BARBACOA DOÑA LUPE",,"722513","Restaurantes con servicio de preparación de antojitos","0 a 5 personas","CALLE","MARTE","CALLE","JUAN RULFO","CALLE","JOAQUIN AMARO","CALLE","FELIPE ÁNGELES","725",,,,,,"COLONIA","MIGUEL HIDALGO",,,,"28111","06","COLIMA","009","Tecomán","0001","Tecomán","0925","024","3133254258",,,"Fijo","18.93183999","-103.88694315","2010-07"
"7111769","06009722513001931000000000U9","BARBACOA EL CAPORAL",,"722513","Restaurantes con servicio de preparación de antojitos","0 a 5 personas","AVENIDA","CARLOS DE LA MADRID VIRGEN","PROLONGACION","ALFONSO HERRERA","PROLONGACION","GRISELDA ÁLVAREZ PONCE DE LEON","CALLE","MANUEL SANTANA","500",,,,,,"COLONIA","SANTA ELENA",,,,"28134","06","COLIMA","009","Tecomán","0001","Tecomán","0732","004",,,,"Fijo","18.91565938","-103.88960842","2019-11"
"319193","06002722219002341000000000U9","BARBACOA EL CARRETON",,"722513","Restaurantes con servicio de preparación de antojitos","0 a 5 personas","AVENIDA","MEXICO","CALLE","AGUASCALIENTES","CALLE","NIÑOS HEROES DE CHAPULTEPEC","CALLE","IGUALA","1370","C",,,"0",,"COLONIA","LOS ANGELES",,,,"28048","06","COLIMA","002","Colima","0001","Colima","0958","004",,,,"Fijo","19.23574614","-103.6983836","2010-07"
"319537","06002722219005122001000000U0","BARBACOA EL CUÑADO",,"722513","Restaurantes con servicio de preparación de antojitos","6 a 10 personas","BOULEVARD","COLIMA-MANZANILLO","CALLE","NINGUNO","CALLE","NINGUNO","CALLE","NINGUNO","1050",,,,,,"COLONIA","COSTEÑO",,,,"28090","06","COLIMA","002","Colima","0001","Colima","0483","005",,,,"Fijo","19.21492446","-103.73162832","2010-07"
"317316","06002722219002811001000000U1","BARBACOA EL GUERO BAUTISTA",,"722513","Restaurantes con servicio de preparación de antojitos","6 a 10 personas","CALLE","VILLA DE ALVAREZ","CALLE","CUYUTLAN","AVENIDA","GONZALO DE SANDOVAL","CALLE","VILLA DE ÁLVAREZ","544",,,,"0",,"COLONIA","REVOLUCION",,,,"28047","06","COLIMA","002","Colima","0001","Colima","084A","022","3123134828",,,"Fijo","19.24212649","-103.69838386","2010-07"
"337648","06005722513000031000000000U7","BARBACOA EL MACACO",,"722513","Restaurantes con servicio de preparación de antojitos","0 a 5 personas","CARRETERA","COLIMA-TONILA","AVENIDA","REVOLUCION","CALLE","FRANCISCO JAVIER MINA","CALLE","BELISARIO DOMÍNGUEZ","1",,,,,,"COLONIA","CENTRO",,,,"28510","06","COLIMA","005","Cuauhtémoc","0018","Quesería","0080","003",,,,"Fijo","19.38500839","-103.57037064","2014-12"
"323200","06010722219001771001000000U1","BARBACOA EL MARINERO",,"722514","Restaurantes con servicio de preparación de tacos y tortas","6 a 10 personas","AVENIDA","BENITO JUAREZ","CALLE","JUAN ALVAREZ","CALLE","FRANCISCO LUIS URQUIZO","CALLE","PASEO DE LOS TRASTES","1017",,,,,,"COLONIA","LA FLORESTA",,,,"28973","06","COLIMA","010","Villa de Álvarez","0001","Ciudad de Villa de Álvarez","0254","001",,"COCORAMEN@HOTMAIL.ES",,"Fijo","19.24812394","-103.74650347","2010-07"
"7772994","06010722513001661000000000U0","BARBACOA EL PECHUGO",,"722513","Restaurantes con servicio de preparación de antojitos","0 a 5 personas","CALLE","HACIENDA SAN RAFAEL","CALLE","HACIENDA DE LA CAPACHA","CALLE","HACIENDA DE LOS COLOMOS","CALLE","H. JOSEFA ORTIZ DE DOMÍNGUEZ","345",,,,,,"COLONIA","SAN CARLOS",,,,"28970","06","COLIMA","010","Villa de Álvarez","0001","Ciudad de Villa de Álvarez","1318","014",,,,"Fijo","19.26728154","-103.74307196","2019-11"
"7042900","06002722513002701000000000U0","BARBACOA EL SAZON DE JALISCO",,"722513","Restaurantes con servicio de preparación de antojitos","0 a 5 personas","CALLE","LA SIERRA","AVENIDA","REPUBLICA MEXICANA","CALLE","REPUBLICA DE BOLIVIA","CALLE","CACAOATALES","1523",,,,,,"COLONIA","MIRADOR DE LA CUMBRE II",,,,"28048","06","COLIMA","002","Colima","0001","Colima","1000","001","3129435112",,,"Fijo","19.22491575","-103.6956151","2019-11"
"9361339","06009722513002911000000000U0","BARBACOA EL SECO",,"722513","Restaurantes con servicio de preparación de antojitos","0 a 5 personas","CALLE","GRISELDA ALVAREZ PONCE DE LEON","CALLE","LAZARO CARDENAS","CALLE","5 DE MAYO","CALLE","ABASOLO",,"SN",,"PLANTA BAJA",,,"COLONIA","UNION","MERCADO PUBLICO","MERCADITO LAZARO CARDENAS","75","28130","06","COLIMA","009","Tecomán","0001","Tecomán","0499","023",,,,"Fijo","18.91471055","-103.87902885","2021-05"
